[{"id":1, "studentId":"studentz8iJVh", "beginTime":"2020-05-24 18:00:21", "endTime":"2020-05-24 18:00:51", "audioText":"\ub098\ub3c4 \ubaa8\ub974\uac8c \uc0ac\ub78c\ub4e4\uacfc\uc758 \uad00\uacc4 \uc18d\uc5d0\uc11c \uc5b4\uca54 \uc218 \uc5c6\uc774 \ud558\ub4e0\uac00 \uc544\ub2c8\uba74 \ubbf8\uc6c0 \uc774\ub77c\ub4e0\uac00 \ubd84\ub178 \ub77c\ub4e0\uac00 \uc9dc\uc99d\uc774 \ub77c\ub4e0\uac00 \uadf8\ub7f0 \uac10\uc815\uc774 \uc77c\uc5b4\ub0a0 \ub54c\uac00 \uc788\uc9c0\uc694 \uadf8\ub7f4 \ub54c \uadf8 \uac10\uc815\ub4e4\uc744 \uc6b0\ub9ac\uac00 \uc5b4\ub5bb\uac8c \ud574\uc57c \ub418\ub294\uac00 \uadf8\uac83\uc740 \ub0b4\uac00 \uc5b4\ub5bb\uac8c \ud574\uc57c \ub420\uc9c0 \ubaa8\ub974\uaca0\uc2b5\ub2c8\ub2e4", "sentiment":"NEUTRAL", "bpm":107, "long":126.95210530545467, "lat":37.44871326661748, "gravityX":-0.19, "gravityY":-0.64, "gravityZ":-0.75, "accX":-0.01, "accY":0.02, "accZ":0.0, "rotX":-0.01, "rotY":-0.03, "rotZ":-0.03, "attRoll":-0.2, "attPitch":0.7, "attYaw":0.1, "fallenDown":0, "bullying":0},
 {"id":2, "studentId":"studentz8iJVh", "beginTime":"2020-05-24 18:00:51", "endTime":"2020-05-24 18:01:21", "audioText":"\ud639\uc2dc \uc5ec\ub7ec\ubd84\ub4e4 \uc0b6 \uc18d\uc5d0\uc11c \ub0b4\uac00 \ud560 \uc218 \uc5c6\ub294 \uadf8\ub7ec\ud55c \uc5b4\ub835\uace0 \ud798\ub4e4\uace0 \uc9dc\uc99d \ub098\uace0 \uad34\ub85c\uc6b4 \uadf8\ub7f0\ud654\uc5d0 \uadf8\ub7f0 \uac10\uc815\ub4e4\uc774 \uc62c\ub77c\uc654\uc744 \ub54c \uc5b4\ub5a1\ud558\uba74 \uc88b\uc744\uae4c \uadf8\uac83\uc5d0 \ub300\ud574\uc11c \uc5ec\ub7ec\ubd84\ub4e4\uacfc \uac04\ub2e8\ud788 \uc774\uc57c\uae30\ub97c \ub098\ub220 \ubcf4\ub824\uace0 \ud569\ub2c8\ub2e4 \uc5ec\ub7ec\ubd84\ub4e4\uc740 \uc5b4\ub5bb\uac8c \ud574\uc57c\uc8e0", "sentiment":"NEGATIVE", "bpm":99, "long":126.9521440644763, "lat":37.448686092251634, "gravityX":-0.22, "gravityY":-0.59, "gravityZ":-0.78, "accX":0.0, "accY":0.01, "accZ":0.01, "rotX":0.03, "rotY":0.07, "rotZ":0.0, "attRoll":-0.3, "attPitch":0.6, "attYaw":0.1, "fallenDown":0, "bullying":0},
 {"id":3, "studentId":"studentz8iJVh", "beginTime":"2020-05-24 18:01:22", "endTime":"2020-05-24 18:01:22", "audioText":"\ub108\ub97c \uc2eb\uc5b4\ud55c\ub2e4.", "sentiment":"NEGATIVE", "bpm":99, "long":126.952099859602, "lat":37.44870250208849, "gravityX":-0.14, "gravityY":-0.3, "gravityZ":-0.94, "accX":0.01, "accY":0.01, "accZ":0.05, "rotX":0.2, "rotY":-0.17, "rotZ":-0.1, "attRoll":-0.2, "attPitch":0.3, "attYaw":0.1, "fallenDown":0, "bullying":1},
 {"id":4, "studentId":"studentz8iJVh", "beginTime":"2020-05-24 18:01:22", "endTime":"2020-05-24 18:01:52", "audioText":"\uc5b4\ub5a4 \ubd84\ub4e4\uc740 \uadf8 \ud65c\uc744 \uc774\ub807\uac8c \ub530\ub73b\ud574 \ub3c4\ub9dd\uce58\ub824\uace0 \uadf8\ub798\uc694 \uac70\uae30\uc11c \ubc97\uc5b4\ub098\ub824\uace0 \ubc97\uc5b4\ub098\ub824\uace0 \ud558\uace0 \ubd80\uc815\ud558\uac70\ub098 \uc544\ub2c8\uba74\uc740 \uadf8 \uc5b4\ub5a4 \ubd84\ub4e4\uc740 \uacc4\uc18d \uadf8\ub0e5 \ub204\ub974\ub824\uace0 \ud654\ub97c \ubb3c\uc5b4 \uac00\uc9c0\uace0 \uc788\uc5b4", "sentiment":"NEGATIVE", "bpm":96, "long":126.95211796498715, "lat":37.44868154261255, "gravityX":-0.18, "gravityY":-0.22, "gravityZ":-0.96, "accX":0.05, "accY":0.05, "accZ":0.01, "rotX":-1.22, "rotY":0.38, "rotZ":0.65, "attRoll":-0.2, "attPitch":0.2, "attYaw":0.1, "fallenDown":0, "bullying":0},
 {"id":5, "studentId":"studentz8iJVh", "beginTime":"2020-05-24 18:01:52", "endTime":"2020-05-24 18:02:22", "audioText":"non-transcribable", "sentiment":"NEUTRAL", "bpm":98, "long":126.95199040747565, "lat":37.448669014857074, "gravityX":-0.16, "gravityY":-0.34, "gravityZ":-0.93, "accX":0.01, "accY":-0.02, "accZ":0.04, "rotX":0.11, "rotY":-0.16, "rotZ":0.0, "attRoll":-0.2, "attPitch":0.4, "attYaw":0.1, "fallenDown":0, "bullying":0},
 {"id":6, "studentId":"studentz8iJVh", "beginTime":"2020-05-24 18:02:01", "endTime":"2020-05-24 18:02:10", "audioText":"non-transcribable", "sentiment":"NEUTRAL", "bpm":95, "long":126.95194383079794, "lat":37.44860278827722, "gravityX":-0.21, "gravityY":-0.35, "gravityZ":-0.91, "accX":-0.02, "accY":-0.01, "accZ":0.0, "rotX":-0.13, "rotY":0.01, "rotZ":-0.02, "attRoll":-0.2, "attPitch":0.4, "attYaw":0.1, "fallenDown":0, "bullying":0},
 {"id":7, "studentId":"studentz8iJVh", "beginTime":"2020-05-24 18:02:31", "endTime":"2020-05-24 18:03:01", "audioText":"\uadf8\ub7f0\ub370 \ub9cc\uc57d\uc5d0 \uc6b0\ub9ac\uac00 \uc2e0\ub294\uac8c \uc774\ub807\uac8c \uc788\ub294 \uadf8 \ubb3c\uacfc \uc11e\uc5ec \uc788\ub294 \uc9c4\ud759\ud0d5 \uc655\uc758 \uc788\ub2e4\uace0 \uccd0 \ubd10\uc694 \uc774\ub7f4 \ub54c \ub0b4\uac00 \uae68\ub057\ud558\uac8c \ubb3c\uc744 \ub9cc\ub4e4\uace0 \uc2f6\ub2e4\uace0 \ud574\uc11c \uc591\uc190\uc744 \uadf8\ubb3c \uc548\uc5d0 \ub123\uc5b4 \uac00\uc9c0\uace0 \ube68\ub9ac \uc544\ub798\ub85c", "sentiment":"NEGATIVE", "bpm":95, "long":126.95209522209784, "lat":37.448703715562466, "gravityX":-0.23, "gravityY":-0.37, "gravityZ":-0.9, "accX":-0.01, "accY":0.0, "accZ":0.02, "rotX":0.09, "rotY":-0.06, "rotZ":-0.05, "attRoll":-0.2, "attPitch":0.4, "attYaw":0.1, "fallenDown":0, "bullying":0},
 {"id":8, "studentId":"studentYDQtTy", "beginTime":"2020-05-24 18:19:52", "endTime":"2020-05-24 18:20:22", "audioText":"\uacf5\ud56d\uc5d0 \uc788\ub2e4\uace0 \uccd0 \ubd10\uc694 \uc774\ub7f4 \ub54c \ub0b4\uac00 \uae68\ub057\ud558\uac8c \ubb3c\uc744 \ub9cc\ub4e4\uace0 \uc2f6\ub2e4\uace0 \ud574\uc11c \uc591\uc190\uc744 \uadf8\ubb3c \uc548\uc5d0 \uac00\uc9c0\uace0 \ube68\ub9ac \uc544\ub798\ub85c \uc54a\uc2b5\ub2c8\uae4c \uc5b4\ub54c\uc694", "sentiment":"POSITIVE", "bpm":94, "long":126.95191252165239, "lat":37.448669125274456, "gravityX":-0.24, "gravityY":-0.37, "gravityZ":-0.9, "accX":-0.01, "accY":0.01, "accZ":-0.01, "rotX":-0.06, "rotY":-0.04, "rotZ":-0.06, "attRoll":-0.3, "attPitch":0.4, "attYaw":0.1, "fallenDown":0, "bullying":0},
 {"id":9, "studentId":"studentCsUhNC", "beginTime":"2020-05-24 18:34:13", "endTime":"2020-05-24 18:34:43", "audioText":"\ubb50\ub0d0\uba74 \uc544\uc774\uace0 \ub108\ub294 \uc544\ube44\uac00 \uc5c6\uc5b4 \uac00\uc9c0\uace0 \uc804\ud654\ud560 \ub54c \ud798\ub4e4 \uac83 \uac19\ub2e4 \uadf8\ub7ec\uba74 \uc0c1\ucc98\uc5d0 \ub9d0\ub4e4 \uc9c0\uae08 \uc544\ud30c\uc694 \uc548 \uc544\ud30c\uc694 \uc9c0\uae08 \uc5b4\ub9b0\uc774 \ub410\uc9c0\ub9cc \ubab8\uc740 \uc5b4\ub5a0\ub2c8 \uc218\ub9ce\uc740 \uc544\uc774\ub294 \uc5b4\ub54c\uc694 \uadf8 \uc0c1\ucc98 \ub54c\ubb38\uc5d0 \uadf8\ub7f0 \uac70\uc796\uc544\uc694 \ub098\uc911\uc5d0 \uacb0\ud63c\ud560 \ub54c\ub294 \ub098 \uc774\ub7f0 \ub9d0 \ub4e4\uc73c\uba74 \ub098\uc774\uac00 \ub4e4\uc5b4\uc11c \uc5b4\ub5bb\uac8c \ub290\ub07c\ub294 \uc0ac\ub78c\ub4e4\uc740 \ub098\ub97c \uc815\ub9d0 \uc798 \uc54c\uac8c \ub418\uba74\uc740", "sentiment":"NEGATIVE", "bpm":94, "long":126.95209210084246, "lat":37.44870583660023, "gravityX":-0.25, "gravityY":-0.37, "gravityZ":-0.89, "accX":-0.01, "accY":-0.01, "accZ":0.01, "rotX":-0.05, "rotY":-0.08, "rotZ":-0.02, "attRoll":-0.3, "attPitch":0.4, "attYaw":0.0, "fallenDown":0, "bullying":0},
 {"id":10, "studentId":"studentCsUhNC", "beginTime":"2020-05-24 18:34:43", "endTime":"2020-05-24 18:35:13", "audioText":"\uc548 \uc88b\uc544\ud574 \uc904 \uac70\uc57c \uadf8\ub7f0 \ub9c8\uc74c\uc774 \uc774\ub807\uac8c \ub4e4\uc5b4\uac08 \uc218 \uc788\uc5b4\uc694 \uadf8\ub798\uc11c \uc5b4\ub978\uc774 \ub418\uc5b4\ub3c4 \uc0ac\ub78c\ub4e4\uacfc \ub9c9 \uce5c\ud574\uc9c0\ub824\uace0 \uadf8\ub7ec\uba74 \uac70\ubd80\ud558\uace0 \uc798 \ub418\ub294\ub370 \uc624\ub298 \uac11\uc790\uae30 \ubb50 \uadf8\ub7f0 \uc0ac\ub78c \uc788\uc8e0 \uadf8\uac8c \ub54c\ubb38\uc5d0 \uc77c\uc5b4\ub098\ub294 \uac70\uc57c \uadf8\ub7f0\ub370 \uc81c\uac00 \uc5ec\uae30\uc11c \uc788\ub294\uac00 \ud55c\ubc88 \ud574 \ubcfc\uac8c\uc694 \uc81c\uac00 \uc81c\uac00 \uc5ec\uae30\uc11c", "sentiment":"NEGATIVE", "bpm":93, "long":126.95209401073038, "lat":37.44872351120451, "gravityX":-0.25, "gravityY":-0.39, "gravityZ":-0.89, "accX":-0.01, "accY":0.0, "accZ":-0.01, "rotX":0.01, "rotY":-0.05, "rotZ":-0.07, "attRoll":-0.3, "attPitch":0.4, "attYaw":0.1, "fallenDown":0, "bullying":0},
 {"id":11, "studentId":"studentCsUhNC", "beginTime":"2020-05-24 18:35:14", "endTime":"2020-05-24 18:35:44", "audioText":"\uc788\ub294\uac00 \ud55c\ubc88 \ud574 \ubcfc\uac8c\uc694 \uc81c\uac00 \ud574\uc8fc\uace0 \uc2f6\uc740 \ub9d0\uc774 \uac70\uc608\uc694 \uadf8 \uc5b4\ub978\ub4e4 \ub9d0\uc774 \uc788\uc796\uc544\uc694 \uc5b4\ub978\ub4e4\ub9cc \ub2e4 \uc790\uae30\ub124\ub4e4 \ub9d0\uc774\uc5c8\uc5b4\uc694 \uc774\uac8c \ubb34\uc2a8 \uc598\uae30\ub0d0\uba74 \uadf8\ub7f0 \uc598\uae30 \ud558\ub294 \uc0ac\ub78c\ub4e4\uc774 \uc8fc\ub85c \ubcf8\uc778 \uc2a4\uc2a4\ub85c\uac00 \uc5f4\ub4f1\uac10\uc5d0 \ube60\uc9c4 \uc0ac\ub78c \ub610 \uadf8\ub7f0 \uc77c\uc744 \ub610 \uc798 \ud574\uc694 \uadf8\ub798\uc11c \uc790\uae30\ub4e4\uc758 \uad00\uc810\uc5d0\uc11c \ubcf8 \uc598\uae30\ub97c \ud55c \uac83 \ubfd0\uc774\uc5d0\uc694 \ub0b4\uac8c\uac00 \uc544\ub2c8\ub77c \uc774\uac8c \ubb34\uc2a8 \uc598\uae34\uc9c0 \uc544\uae4c", "sentiment":"POSITIVE", "bpm":97, "long":126.95201784868334, "lat":37.448652206811936, "gravityX":-0.23, "gravityY":-0.42, "gravityZ":-0.88, "accX":0.01, "accY":0.02, "accZ":0.03, "rotX":-0.01, "rotY":-0.1, "rotZ":-0.03, "attRoll":-0.3, "attPitch":0.4, "attYaw":0.1, "fallenDown":0, "bullying":0},
 {"id":12, "studentId":"studentCsUhNC", "beginTime":"2020-05-24 18:35:44", "endTime":"2020-05-24 18:36:14", "audioText":"\ub098\uac00\uba74\uc740 \uc9c4\ud589\uc790\ub97c \uc880 \uc54c\uc544\uc57c\uc9c0 \uc81c\uac00 \uc880 \ub9d0\uc744 \uc11e\uc744 \uac70 \uc544\ub2c8\uc5d0\uc694 \uac80\uc0c9\ucc3d\uc5d0\ub2e4\uac00 \uadf8 \uc774\ub984\uc744 \uccd0 \ub9de\uc8e0 \uc81c\uac00 \uc774\uc81c \ud0c1\uc7ac\ud6c8 \uadf8\ub2e4\uc74c\uc5d0", "sentiment":"POSITIVE", "bpm":94, "long":126.95231721165833, "lat":37.44885707322469, "gravityX":-0.2, "gravityY":-0.45, "gravityZ":-0.87, "accX":-0.01, "accY":0.02, "accZ":0.01, "rotX":0.83, "rotY":0.68, "rotZ":0.15, "attRoll":-0.2, "attPitch":0.5, "attYaw":0.1, "fallenDown":0, "bullying":0},
 {"id":13, "studentId":"studentCsUhNC", "beginTime":"2020-05-24 18:36:14", "endTime":"2020-05-24 18:36:44", "audioText":"\uc870\uadf8\ub9e3\uac8c \ubcf4\uc774\ub294 \uadf8\ub7f0 \uac70\uc608\uc694 \uc54c\uac8c \ubaa8\ub974\uac8c \uc81c\uac00 \uc774\uc81c \ud0a4\uac00 170\uc778\ub370 \uadf8\ub0e5 \uc774\uc81c \uac16\uace0 \uc788\uc796\uc544\uc694 \uadfc\ub370 \uc774\uc81c ", "sentiment":"NEUTRAL", "bpm":93, "long":126.95226522347988, "lat":37.44874683749382, "gravityX":-0.23, "gravityY":-0.39, "gravityZ":-0.89, "accX":0.0, "accY":0.01, "accZ":0.02, "rotX":-0.09, "rotY":-0.12, "rotZ":-0.09, "attRoll":-0.3, "attPitch":0.4, "attYaw":0.1, "fallenDown":0, "bullying":0},
 {"id":14, "studentId":"studentCsUhNC", "beginTime":"2020-05-24 18:36:44", "endTime":"2020-05-24 18:37:14", "audioText":"\uadf8\ub7f0\ub370 \uc774\uc0c1\ud558\uac8c\ub3c4 \uae40\uc885\ud6c8\uc528\uc5d0 \uac16\uace0 \uc788\ub294 \ub108\ubb34\ub108\ubb34 \uc88b\uc740 \uc7a5\uc810\uc744 \uc798 \uc785\uc73c\uc2dc\uace0 \ub9d0\ub3c4 \uc798 \ud558\uc2dc\uace0 \uc5bc\uad74\ub3c4 \uc798 \ucc59\uae30\uc2dc\uace0 \uc88b\uc740 \uc7a5\uc810\uc774 \uc788\ub294\ub370 \uc81c \ub208\uc5d0\ub294 \ubb50\uac00 \ubcf4\uc5ec\uc694 \ub0b4\uac00 \uac16\uace0 \uc788\ub294 \uc5f4\ub4f1\uac10 \ucef4\ud50c\ub809\uc2a4 \ub54c\ubb38\uc5d0 \uadf8\ub7f0 \uac70\uc608\uc694 \uadf8\ub7ec\uba74 \uc774\uc81c \ub3cc\uc544\uac00 \ubd05\uc2dc\ub2e4 \uc798 \ubab0\ub77c\uc694 \uacf5\ubd80\ub97c \ubabb\ud558\uba74 \uc6b4\ub3d9\ub3c4 \uc798 \ud560 \uc218 \uc788\ub294 \uac70", "sentiment":"POSITIVE", "bpm":93, "long":126.95250633799625, "lat":37.44894717497366, "gravityX":-0.28, "gravityY":-0.51, "gravityZ":-0.82, "accX":-0.01, "accY":0.0, "accZ":0.0, "rotX":0.01, "rotY":-0.12, "rotZ":-0.06, "attRoll":-0.3, "attPitch":0.5, "attYaw":0.0, "fallenDown":0, "bullying":0},
 {"id":15, "studentId":"studentCsUhNC", "beginTime":"2020-05-24 18:37:15", "endTime":"2020-05-24 18:37:45", "audioText":"\uc788\uc744 \uac70 \uc544\ub2c8\uc5d0\uc694 \uadfc\ub370 \uc65c \ud558\ud544\uc774\uba74 \uadf8 \uc5b4\ub978\uc774 \uc6b0\ub9ac \uc544\uc774\ud55c\ud14c \uc774\ub7f0 \ub9d0\uc744 \ud588\uc744\uae4c \uc608\ub97c \ub4e4\uc5b4\uc11c \uc65c \uba39\uc5c8\ub2e4\uace0 \uc598\uae30\ud558\ub294 \uac83\ub3c4 \ubb50 \ub2e4 \ubcf8\uc778 \uc2a4\uc2a4\ub85c\ub3c4 \ub098\ub294 \ub290\ub07c\ub294 \uc0ac\ub78c\uc774 \uc790\uae30 \uadf8 \ubb50\uc57c \uadf8 \uc5f4\ub4f1\uac10\ub54c\ubb38\uc5d0 \ub531 \ubcf4\uc774\ub294 \uac70\uc608\uc694 \uadfc\ub370 \uc6b0\ub9ac\ub294 \uc5b4\ub9ac\uae30 \ub54c\ubb38\uc5d0 \uc5b4\ub560\uc5b4\uc694 \uadf8\uac8c \ub2e4 \ub0b4 \uc798\ubabb\uc774\uc57c", "sentiment":"NEUTRAL", "bpm":91, "long":126.95249426398864, "lat":37.448882579732974, "gravityX":-0.22, "gravityY":-0.39, "gravityZ":-0.9, "accX":-0.01, "accY":0.0, "accZ":-0.02, "rotX":-0.09, "rotY":-0.3, "rotZ":-0.11, "attRoll":-0.2, "attPitch":0.4, "attYaw":0.0, "fallenDown":0, "bullying":0},
 {"id":16, "studentId":"studentCsUhNC", "beginTime":"2020-05-24 18:37:29", "endTime":"2020-05-24 18:37:44", "audioText":"\uadf8\ub798\uac00\uc9c0\uace0 \ub098\ub97c \ubb34\uc2dc\ud558\ub294 \uac70\ub9ac\ub294\ub370 \uc65c \uadf8\ub807\uac8c \ud588\uc5b4 \uc790\uae30\uac00 \ub0b4\uc138\uc6b8\uac8c \uadf8\uac70 \ubc16\uc5d0 \uc5c6\uae30 \ub54c\ubb38\uc5d0 \uc790\uae30\ub4e4\uc758 \uacb0\ud63c \uc0dd\ud65c\uc774 \uc880 \ubcf4\ub0b4\ub3c4 \ub098\ub294 \ucc38\uace0 \uc788\ub2e4 \ub2e4\ub978 \uac83\uc744 \ub9c9\uae30 \uc704\ud574\uc11c \ub2e4\ub978 \uc0ac\ub78c \ubcf4\uba74 \uc5b4\ub54c\uc694", "sentiment":"POSITIVE", "bpm":91, "long":126.95251948742836, "lat":37.44898601141586, "gravityX":-0.28, "gravityY":-0.53, "gravityZ":-0.8, "accX":0.0, "accY":0.0, "accZ":0.01, "rotX":0.28, "rotY":0.29, "rotZ":0.11, "attRoll":-0.3, "attPitch":0.6, "attYaw":0.0, "fallenDown":0, "bullying":0},
 {"id":17, "studentId":"studentCsUhNC", "beginTime":"2020-05-24 18:38:00", "endTime":"2020-05-24 18:38:30", "audioText":"\ub098\ub97c \ubb34\uc2dc\ud558\uace0 \ub9ce\uc774 \uc2eb\uc5b4\ud55c\ub098\ubd10", "sentiment":"NEGATIVE", "bpm":99, "long":126.95234369851985, "lat":37.44888440664874, "gravityX":-0.25, "gravityY":-0.52, "gravityZ":-0.82, "accX":0.0, "accY":0.01, "accZ":0.02, "rotX":-0.21, "rotY":0.08, "rotZ":-0.01, "attRoll":-0.3, "attPitch":0.5, "attYaw":0.0, "fallenDown":1, "bullying":0},
 {"id":18, "studentId":"studentCsUhNC", "beginTime":"2020-05-24 18:38:30", "endTime":"2020-05-24 18:39:00", "audioText":"non-transcribable", "sentiment":"NEUTRAL", "bpm":90, "long":126.95232755972216, "lat":37.44887404317407, "gravityX":-0.21, "gravityY":-0.4, "gravityZ":-0.89, "accX":0.02, "accY":0.0, "accZ":-0.01, "rotX":0.19, "rotY":-0.09, "rotZ":-0.02, "attRoll":-0.2, "attPitch":0.4, "attYaw":0.0, "fallenDown":0, "bullying":0},
 {"id":19, "studentId":"studentCsUhNC", "beginTime":"2020-05-24 18:39:05", "endTime":"2020-05-24 18:39:09", "audioText":"non-transcribable", "sentiment":"NEUTRAL", "bpm":91, "long":126.95228158468048, "lat":37.44878949509715, "gravityX":-0.08, "gravityY":-0.29, "gravityZ":-0.95, "accX":-0.12, "accY":0.08, "accZ":-0.45, "rotX":1.4, "rotY":1.93, "rotZ":1.07, "attRoll":-0.1, "attPitch":0.3, "attYaw":0.3, "fallenDown":1, "bullying":0},
 {"id":20, "studentId":"studentCsUhNC", "beginTime":"2020-05-24 18:39:00", "endTime":"2020-05-24 18:39:30", "audioText":"non-transcribable", "sentiment":"NEUTRAL", "bpm":90, "long":126.95231299241846, "lat":37.448818512585255, "gravityX":-0.22, "gravityY":-0.41, "gravityZ":-0.89, "accX":0.06, "accY":0.0, "accZ":-0.03, "rotX":-0.05, "rotY":-0.06, "rotZ":0.05, "attRoll":-0.2, "attPitch":0.4, "attYaw":0.0, "fallenDown":0, "bullying":0},
 {"id":21, "studentId":"studentCsUhNC", "beginTime":"2020-05-24 18:39:35", "endTime":"2020-05-24 18:40:05", "audioText":"\uc548\ub155\ud558\uc138\uc694 \ucef4\ud4e8\ud130\uacf5\ud559\uacfc \uc9c0\uc5ed\uc801\uc778 \uac15\ubcf4\uc724 \ud798\ub4e4\uc5c8\uac70\ub4e0\uc694", "sentiment":"NEGATIVE", "bpm":91, "long":126.95249128828283, "lat":37.448958072423004, "gravityX":0.22, "gravityY":-0.52, "gravityZ":-0.82, "accX":-0.14, "accY":0.19, "accZ":-0.28, "rotX":-1.31, "rotY":0.08, "rotZ":1.47, "attRoll":0.3, "attPitch":0.6, "attYaw":0.7, "fallenDown":1, "bullying":0},
 {"id":22, "studentId":"studentCsUhNC", "beginTime":"2020-05-24 18:40:05", "endTime":"2020-05-24 18:40:35", "audioText":"\ud558\uba74\uc740 \uadf8 \uc0ac\ub78c\ub4e4\uacfc 30\ubd84\uc529 \uc778\ud130\ubdf0\ub97c \uc778\ud130\ubdf0\ub97c \ud558\uba74\uc740 20\uba85 \uc911\uc5d0 \ub610 \ud55c 3\uba85\uc73c\ub85c \ub610 \uc904\uc5ec\uc694 \uadf8\ub798\uc11c \uc65c \ub9c8\uc9c0\ub9c9 \uc778\ud130\ubdf0\ub97c \uc5b4\ub514\uc11c \ud558\ub0d0\uba74 \uadf8\ub300 \ud559\uad50\ub85c \ubd88\ub7ec\uc11c \ud574\uc694", "sentiment":"NEUTRAL", "bpm":92, "long":126.95232300257523, "lat":37.448871116817465, "gravityX":-0.61, "gravityY":-0.19, "gravityZ":-0.77, "accX":-0.18, "accY":-0.15, "accZ":-0.01, "rotX":-0.18, "rotY":-0.39, "rotZ":0.8, "attRoll":-0.7, "attPitch":0.2, "attYaw":0.5, "fallenDown":0, "bullying":0},
 {"id":23, "studentId":"studentCsUhNC", "beginTime":"2020-05-24 18:40:35", "endTime":"2020-05-24 18:41:05", "audioText":"\uc774\uac74 \ubb58 \ud558\ub824\uba74\uc740 \uad50\uc218\ub97c \ubf51\uae30 \uc704\ud574\uc11c\ub294 2\ubc15 3\uc77c \ub3d9\uc548 \uc6b0\ub9ac\uac00 \ub9c8\uce58 \uc800 \uc0ac\ub78c\uc774 \uc6b0\ub9ac\ub300\ud559\uad50\uc5d0 \uad50\uc218\ub2d8 \uac83\ucc98\ub7fc 3\uc77c \ub3d9\uc548 \uadf8\ub798\uc11c \ud559\uc0dd\ub4e4\ud55c\ud14c \uc55e\uc5d0\uc11c \uac00\ub974\uccd0\ub3c4 \ubcf4\uace0", "sentiment":"POSITIVE", "bpm":93, "long":126.9524277975549, "lat":37.448954164400604, "gravityX":-0.76, "gravityY":-0.06, "gravityZ":-0.65, "accX":-0.03, "accY":-0.08, "accZ":-0.03, "rotX":-0.96, "rotY":-0.76, "rotZ":-0.51, "attRoll":-0.9, "attPitch":0.1, "attYaw":0.1, "fallenDown":0, "bullying":0},
 {"id":24, "studentId":"studentCsUhNC", "beginTime":"2020-05-24 18:41:06", "endTime":"2020-05-24 18:41:36", "audioText":"\ub300\ud559 \uc788\uc5c8\ub294\ub370 \uadf8 \ub300\ud559\uc774 \uc778\ud130\ubdf0 \ub0a0\uc9dc\ub97c \ub531 \ubcf4\ub2c8\uae4c \ud558\ud544\uc774\uba74 \uc65c \uac00\uc57c \ub418\ub294 \uac70\uc608\uc694 \uadfc\ub370 \uc778\ud130\ubdf0 \ud574\ubcf4\uc2dc\uba74 \uc54c\uaca0\uc9c0\ub9cc \uccab \ubc88\uc9f8 \ud560 \ub54c\ubcf4\ub2e4 \ub354 \uc798\ud558\uc8e0 \ub450 \ubc88\uc9f8 \uc138 \ubc88\uc9f8 \uadf8\ub7ec\ub2c8\uae4c", "sentiment":"POSITIVE", "bpm":94, "long":126.95253911438392, "lat":37.44897457470205, "gravityX":-0.65, "gravityY":-0.06, "gravityZ":-0.76, "accX":0.03, "accY":0.11, "accZ":0.03, "rotX":-0.34, "rotY":-0.29, "rotZ":-0.86, "attRoll":-0.7, "attPitch":0.1, "attYaw":0.1, "fallenDown":0, "bullying":0},
 {"id":25, "studentId":"studentCsUhNC", "beginTime":"2020-05-24 18:41:36", "endTime":"2020-05-24 18:42:06", "audioText":"2\ubc15 3\uc77c \ucc98\uc74c \ud574 \ubd24\uc796\uc544\uc694 \uc0ac\ub791\uc5d0 \ube60\uc84c\uc5b4 \uc81c\uac00 \ub108\ubb34 \uc88b\uc740 \uac70\uc57c \uadf8\ub798\uc11c \ub108\ubb34 \ub9c8\uc74c\uc5d0 \ub4e4\uba74\uc11c \ud559\uad50\ub97c \uac00\uace0 \uc2f6\uc740 \ub9c8\uc74c\uc774 \ub108\ubb34 \ub4e4\uc5c8\uc5b4\uc694. \uadfc\ub370 \uc774\uc81c \ubb38\uc81c\uac00 \ubb50\ub0d0\uba74 \uc774\ud2c0 \ub4a4\uc5d0 \uc5f0\ub77d\uc774 \uc654\ub294\ub370 \uc5f0\ub77d\uc774 \uc5b4\ub5bb\uac8c \ud558\ub0d0\uba74 \uc544 \uc8c4\uc1a1\ud569\ub2c8\ub2e4 \ub5a8\uc5b4\uc84c\uc2b5\ub2c8\ub2e4 \uc774\ub807\uac8c \uc5f0\ub77d\uc774 \uc628 \uac70\uc608\uc694 \uadf8 \uc21c\uac04 \uc800\ub3c4 \uc5c4\uccad\ub098\uac8c \uc0ac\ubb34\uc2e4\uc5d0 \uc788\uc744 \ub54c \uadf8\ub54c \ub2a5\ub825\ub3c4 \uc5c6\uc5b4 \uac00\uc9c0\uace0 \uc774\ub807\uac8c", "sentiment":"NEGATIVE", "bpm":94, "long":126.9523805572548, "lat":37.44890894879862, "gravityX":-0.71, "gravityY":-0.1, "gravityZ":-0.7, "accX":0.0, "accY":0.04, "accZ":0.09, "rotX":0.67, "rotY":0.25, "rotZ":0.31, "attRoll":-0.8, "attPitch":0.1, "attYaw":0.1, "fallenDown":0, "bullying":0},
 {"id":26, "studentId":"studentCsUhNC", "beginTime":"2020-05-24 18:42:06", "endTime":"2020-05-24 18:42:36", "audioText":"\uadf8\ub7f0\ub370 \ub098\uc911\uc5d0 \uc54c\uace0 \ubcf4\ub2c8\uae4c \uc9c0\uae08 \ud604\uc7ac \ubbf8\uad6d \ub300\ud559\uad50 \ud559\uc0dd\ub4e4 \uac00\ub974\uce58\ub294\ub370 \uc774\uc81c \ud559\uad50 \uc548\uc5d0\uc11c \ub2e4\ub978 \uad50\uc218\ub97c \uc774\uc81c \ubf51\ub294 \uc785\uc7a5\uc5d0\uc11c \uac00\uc9c0\uace0 \ube44\uc2b7\ud55c \uadfc\uc131\uc744 \ubcf4\uae30 \ub418\uc796\uc544\uc694", "sentiment":"POSITIVE", "bpm":93, "long":126.95235512197549, "lat":37.44890318635941, "gravityX":-0.65, "gravityY":-0.12, "gravityZ":-0.75, "accX":-0.01, "accY":0.02, "accZ":0.07, "rotX":-0.98, "rotY":-0.23, "rotZ":-0.25, "attRoll":-0.7, "attPitch":0.1, "attYaw":0.0, "fallenDown":0, "bullying":0},
 {"id":27, "studentId":"studentCsUhNC", "beginTime":"2020-05-24 18:42:16", "endTime":"2020-05-24 18:42:26", "audioText":"non-transcribable", "sentiment":"NEUTRAL", "bpm":93, "long":126.95253323403563, "lat":37.44897755915844, "gravityX":-0.3, "gravityY":-0.32, "gravityZ":-0.9, "accX":-0.25, "accY":0.11, "accZ":-0.03, "rotX":1.43, "rotY":1.83, "rotZ":1.89, "attRoll":-0.3, "attPitch":0.3, "attYaw":0.6, "fallenDown":0, "bullying":0},
 {"id":28, "studentId":"studentBs4Wad", "beginTime":"2020-05-24 18:57:34", "endTime":"2020-05-24 18:58:04", "audioText":"\uccab \ubc88\uc9f8 \uc11c\ub958 \uc804\uc5d0 \uc5ec\uae30 \uc798 \ub3fc \uac00\uc9c0\uace0 \ubd99\uc5c8\uc5b4\uc694 \uadf8\ub798\uc11c \ud588\uc5b4", "sentiment":"POSITIVE", "bpm":91, "long":126.9524189901818, "lat":37.44893304590981, "gravityX":-0.17, "gravityY":-0.49, "gravityZ":-0.85, "accX":-0.35, "accY":-0.2, "accZ":-0.13, "rotX":-1.55, "rotY":0.4, "rotZ":-0.31, "attRoll":-0.2, "attPitch":0.5, "attYaw":0.2, "fallenDown":0, "bullying":0},
 {"id":29, "studentId":"studentdsfrot", "beginTime":"2020-05-24 23:22:53", "endTime":"2020-05-24 23:23:20", "audioText":"non-transcribable", "sentiment":"NEUTRAL", "bpm":91, "long":126.95232852526422, "lat":37.44889374729338, "gravityX":-0.2, "gravityY":-0.22, "gravityZ":-0.95, "accX":-0.22, "accY":0.3, "accZ":0.04, "rotX":-0.43, "rotY":-1.58, "rotZ":-2.58, "attRoll":-0.2, "attPitch":0.2, "attYaw":0.6, "fallenDown":0, "bullying":0},
 {"id":30, "studentId":"studentdsfrot", "beginTime":"2020-05-24 23:23:24", "endTime":"2020-05-24 23:23:54", "audioText":"\uc0ac\ub78c\ub4e4\uc774 \ub2a5\ub825\uc774 \uc5c6\uc5b4\uc11c \uadf8\ub7f0\uac70 \uc544\ub2c8\uc57c", "sentiment":"NEUTRAL", "bpm":99, "long":126.95244961956517, "lat":37.44894278465949, "gravityX":0.02, "gravityY":-0.19, "gravityZ":-0.98, "accX":0.31, "accY":0.05, "accZ":0.12, "rotX":1.17, "rotY":-0.14, "rotZ":0.13, "attRoll":0.0, "attPitch":0.2, "attYaw":0.3, "fallenDown":0, "bullying":0},
 {"id":31, "studentId":"student6GyJXu", "beginTime":"2020-05-25 09:19:20", "endTime":"2020-05-25 09:19:50", "audioText":"non-transcribable", "sentiment":"NEUTRAL", "bpm":99, "long":126.95234170787678, "lat":37.44890201278597, "gravityX":-0.13, "gravityY":0.94, "gravityZ":0.3, "accX":0.09, "accY":0.05, "accZ":0.05, "rotX":-1.86, "rotY":-0.87, "rotZ":-0.97, "attRoll":-2.7, "attPitch":-1.2, "attYaw":3.1, "fallenDown":0, "bullying":0},
 {"id":32, "studentId":"student6GyJXu", "beginTime":"2020-05-25 09:19:50", "endTime":"2020-05-25 09:20:20", "audioText":"\ub6f0\uc5b4\ub2e4\ub2c8\ub294 \uac70 \uc544\ub2cc\uac00 \uadf8\ub7f0 \uac70 \uadf8\ub7f0 \uac70 \uae30\uc5b5\ud558\uc796\uc544 \uc9c0\uae08 \uadf8\ub7ec\ub2c8\uae4c \ubb50 \ub2e4 \uc5b4\ub514\uc11c\ub77c\ub3c4 \ud558\uc154\uc57c \ub3fc\uc694 \ubabb \ud558\ub354\ub77c\ub3c4 \ub290\uaef4\uc9c0\ub354\ub77c\ub3c4 \uc2dc\uc791\uc744 \ud558\uc154\uc57c \ub3fc\uc694 \uccab \ubc88\uc9f8\uac8c \uc544\ub2c8\uace0\uc694 \ub450 \ubc88\uc9f8 \ubb38\uc81c \ud574\uacb0 \ub410\uc5b4\uc694 \uadfc\ub370 \uc81c\uac00 \uc774\uc81c 3\ub144 \ub3d9\uc548", "sentiment":"POSITIVE", "bpm":97, "long":126.9522941480933, "lat":37.44890416800374, "gravityX":0.11, "gravityY":0.38, "gravityZ":-0.92, "accX":-0.44, "accY":-0.4, "accZ":0.22, "rotX":-6.46, "rotY":2.42, "rotZ":-1.3, "attRoll":0.1, "attPitch":-0.4, "attYaw":-0.1, "fallenDown":0, "bullying":0},
 {"id":33, "studentId":"student6GyJXu", "beginTime":"2020-05-25 09:20:21", "endTime":"2020-05-25 09:20:51", "audioText":"\uc62c\ub838\uc5b4\uc694 \uadfc\ub370 \uc62c\ub9ac\ub098 \ubcf4\ub2c8\uae4c \uadf8 \uae00\ub4e4\uc774 \uc774\uc81c \ucc45 \ud55c \uad8c \ubd88\ub7c9 \uc774\ub807\uac8c \ub098\uc628 \uac70\uc608\uc694 \uadf8\ub798 \uac00\uc9c0\uace0 \uc778\uc81c \uc544\uc2dc\ub294 \ubd84\ub4e4\uc774 \uc544 \uadf8\ub7ec\uba74 \uadf8\uac70 \ubaa8\uc544 \uac00\uc9c0\uace0 \ucc45\uc744 \ud55c\ubc88 \ub0b4 \ubcf4\uc9c0 \uc54a\uaca0\ub0d0\uace0 \uadf8\ub7ec\ub2c8\uae4c \uc544 \uadf8\ub798 \ub098\ub3c4 \ud55c\ubc88 \uadf8\ub7f0 \uc0dd\uac01\uc774 \ub4e4\uc5c8\uc5b4\uc694 \uc81c\uac00 \uc80a\uc740 \ub0a0\uc758 \uae68\ub2ec\uc74c \uadf8 \uc6d0\uace0\ub97c \uac00\uc9c0\uace0 \uc0ac\ub78c\ub4e4\uc774 \ub9ce\uc774 \uc54c\uace0 \ubc30\uc601\uc778 \uadf8\ub7f0\uc9c0 \ud310\uc0ac\ud55c\ud14c \ub178\ud06c\ub97c \uc774\uc81c \uc138 \ubc88 \ud574\ubd24\uc5b4 \uadf8\ub7ac\ub354\ub2c8 \ub2f5\uc774 \uc5b4\ub5bb\uac8c \ub123\uc5c8\ub294\uc9c0 \uc544\uc138\uc694 \ub2f9\uc2e0\uc774 \ub204\uad70\uc9c0 \uc54c\uace0", "sentiment":"NEGATIVE", "bpm":97, "long":126.95239539786527, "lat":37.44889305424138, "gravityX":0.21, "gravityY":0.5, "gravityZ":0.84, "accX":0.0, "accY":-0.04, "accZ":-0.13, "rotX":0.05, "rotY":0.16, "rotZ":-0.1, "attRoll":2.9, "attPitch":-0.5, "attYaw":2.5, "fallenDown":0, "bullying":0},
 {"id":34, "studentId":"student6GyJXu", "beginTime":"2020-05-25 09:20:51", "endTime":"2020-05-25 09:21:21", "audioText":"\uc870\uae08 \ub098\uc774\uc2a4\ud558\uac8c \uc774\ub807\uac8c \ub2f5\uc744 \ud574 \uc904 \uc218\ub3c4 \uc788\uc9c0\ub9cc \uadf8\uac83\ub3c4 \ud575\uc2ec\uc774 \uadf8\uac70\uc5d0\uc11c \ub2f9\uc2e0\uc774 \ub204\uad70 \uc904 \uc54c\uace0 \ub0b4\uac00 \uc65c \uc6b0\ub9ac\uac00 \uc815\ucc45\uc744 \ud558\uaca0\ub0d0 \uc774\uc81c \ub300\uc601\ucd9c\ud310\uc0ac \uac19\uc740 \uacbd\uc6b0\ub294 \uc5b4\ub5bb\uac8c \ubcf4\uba74\uc740 \ub9ce\uc740 \uc0ac\ub78c\ub4e4\ub85c\ubd80\ud130 \uc790\uae30 \ucd9c\ud310\uc0ac\uc5d0\uc11c \ucc45 \ub0b4\uace0 \uc2f6\ub2e4\uace0 \uc774\ub807\uac8c \uc62c\uae4c\uc694 \uc548 \uc62c\uae4c\uc694 \uadf8\ub7ec\ub2e4 \ubcf4\ub2c8\uae4c \uc120\ubcc4\ud558\ub294 \uacfc\uc815\uc5d0\uc11c \uc880 \uc798 \uc54c\ub824\uc9c4 \uc0ac\ub78c\ub4e4 \uc774\uc0c1\ud55c \ucc45\uc744 \ub0b4\uba74\uc740 \uc5b4\ub290 \uc815\ub3c4 \ud314\ub9b4\uac70\ub77c\uace0 \uc608\uc0c1\uc774 \ub418\ub294 \uc0ac\ub78c\ub4e4 \ub9ce\uc774 \uc774\ub807\uac8c \ud558\uc9c0 \uc54a\uc558\uc744\uae4c \ud558\ub294 \ub370\uac00 \uc788\uc5c8\ub294\ub370 \uadf8 \ub290\ub08c\uc774 \ubb50\ub0d0\uba74", "sentiment":"NEUTRAL", "bpm":97, "long":126.95237025460396, "lat":37.44895490335232, "gravityX":0.18, "gravityY":0.36, "gravityZ":0.92, "accX":0.01, "accY":0.07, "accZ":0.04, "rotX":-0.83, "rotY":-0.05, "rotZ":-0.1, "attRoll":2.9, "attPitch":-0.4, "attYaw":2.6, "fallenDown":0, "bullying":0},
 {"id":35, "studentId":"student6GyJXu", "beginTime":"2020-05-25 09:21:21", "endTime":"2020-05-25 09:21:51", "audioText":"\ub108\ubb34 \ucd08\ub77c\ud558\uac8c \ub290\uaef4\uc9c0\ub294\uac8c \uc81c \uc2a4\uc2a4\ub85c\uac00 \uadf8\ub7ec\uba74\uc11c \uc544\uc774\uace0 \ub098\ub294 \uc815\ub9d0 \uc544\ubb34\uac83\ub3c4 \uc544\ub2c8\uc5c8\uad6c\ub098 \uc774\ub7f0 \ub290\ub08c\uc774 \ub4e4\uc5b4\uc694 \uadf8\ub7ec\uba74\uc11c \uc2b9\ub824\uac00 \ub3fc \uac00\uc9c0\uace0 \ubb34\uc2a8 \ucc45\uc744 \ub2e4\ub2cc\ub2e4\uace0 \uc774\ub7f0 \ub9c8\uc74c\uc5d0 \ub4e4\uc5b4\uc694 \uc774\ub7f0 \ub9c8\uc74c\uc774 \ub4e4\uba74\uc11c \ubb38\ud131\uc774 \uc544\ub2c8\uad6c\ub098 \uc0dd\uac01\ud558\uba74\uc11c \uadf8\ub0e5", "sentiment":"NEGATIVE", "bpm":97, "long":126.95244531260292, "lat":37.448934068096214, "gravityX":0.23, "gravityY":0.4, "gravityZ":0.89, "accX":0.05, "accY":-0.14, "accZ":0.1, "rotX":2.58, "rotY":0.69, "rotZ":0.11, "attRoll":2.9, "attPitch":-0.4, "attYaw":2.7, "fallenDown":0, "bullying":0},
 {"id":36, "studentId":"student6GyJXu", "beginTime":"2020-05-25 09:21:52", "endTime":"2020-05-25 09:22:22", "audioText":"\uadf8\ub9ac\uace0 \uc5b4\ub514\uc11c \uc2dc\uc791\ud574\uc57c \ub41c\ub2e4 \uadf8\ub798\uc11c \uc800\ud76c \uc2a4\ub2d8 \uc798 \uc544\uc2dc\ub294 \uc815\ub9d0\ub85c \uc18c\ud615\uae30\uad00\ucc28 \uc788\uc5c8\uc5b4\uc694 \uc138 \uba85 \uc138 \uba85 \uc0ac\uc7a5\ub2d8 \uacc4\uc2dc\uace0 \ub9c8\ucf00\ud305 \ud558\uc2dc\ub294 \ubd84 \uacc4\uc2dc\uba74 \uc774\uc81c \ubd99\uc774\ub294 \uc5ec\uc9c1\uc6d0\uc774 \uc0dd\uba85\uc758 \ud560 \ud150\ub370 \uac70\uae30\uc11c \ucc45\uc744 \ud588\uc5b4\uc694 \uc80a\uc740 \ub098\uc774\uc5d0 \uadf8 \uacfc\uc815\uc744 \uc5f4\uc2ec\ud788 \uc798 \ud574\uc8fc\uc168\uc5b4\uc694 \ub2a5\ub825\uc5d0 \ub300\ud574\uc11c \ucd5c\ub300\ud55c \uc5f4\uc2ec\ud788 \uc0dd\uac01\ubcf4\ub2e4 \ub9ce\uc740 \ub098\uc654\uc5b4\uc694", "sentiment":"POSITIVE", "bpm":97, "long":126.95240275905871, "lat":37.448904577432266, "gravityX":0.01, "gravityY":0.77, "gravityZ":0.63, "accX":-0.03, "accY":0.22, "accZ":-0.15, "rotX":-1.15, "rotY":-0.1, "rotZ":-0.4, "attRoll":3.1, "attPitch":-0.9, "attYaw":2.9, "fallenDown":1, "bullying":0},
 {"id":37, "studentId":"student6GyJXu", "beginTime":"2020-05-25 09:22:08", "endTime":"2020-05-25 09:22:25", "audioText":"\uccab \ubc88\uc9f8 \ucc45 \uc9c1\uc5c5 \uc544\uc8fc \uc791\uc740 \uc18c\uaddc\ubaa8 \uc9c1\uc6d0\uc740 \uc5c4\uccad\ub098\uac8c \ud06c\uac8c \uc131\uacf5\ud55c \uc148\uc774\uc5d0\uc694 \uadf8\uac8c \uadf8\ub7ec\ub2e4 \ubcf4\ub2c8\uae4c \ub098\ub3c4 \ubaa8\ub974\uac8c \ucc98\uc74c \uc138\uacc4 \ub098\uc624\uba74\uc11c \uc81c\uac00 \uacf5\ubd80\ub97c \ud558\uace0 \uc788\ub354\ub77c\uace0 \ubb34\uc2a8 \uacf5\ubd80 \ub0d0\uba74 \ud55c\uad6d\uc5d0", "sentiment":"POSITIVE", "bpm":97, "long":126.95238614787314, "lat":37.44892409429552, "gravityX":0.28, "gravityY":0.38, "gravityZ":0.88, "accX":-0.04, "accY":0.09, "accZ":0.08, "rotX":-0.21, "rotY":-0.53, "rotZ":0.44, "attRoll":2.8, "attPitch":-0.4, "attYaw":2.9, "fallenDown":0, "bullying":0},
 {"id":38, "studentId":"student6GyJXu", "beginTime":"2020-05-25 09:22:38", "endTime":"2020-05-25 09:23:08", "audioText":"\uc5b4\ub5bb\uac8c \uc9c4\ud589\uc774 \ub418\uace0 \uc788\ub2e4\ub294", "sentiment":"NEUTRAL", "bpm":94, "long":126.95241967092947, "lat":37.44888122410537, "gravityX":0.22, "gravityY":0.59, "gravityZ":0.78, "accX":0.01, "accY":0.0, "accZ":0.03, "rotX":1.09, "rotY":0.0, "rotZ":0.07, "attRoll":2.9, "attPitch":-0.6, "attYaw":3.0, "fallenDown":0, "bullying":0},
 {"id":39, "studentId":"student6GyJXu", "beginTime":"2020-05-25 09:23:09", "endTime":"2020-05-25 09:23:39", "audioText":"non-transcribable", "sentiment":"NEUTRAL", "bpm":94, "long":126.95250210997683, "lat":37.44895258972667, "gravityX":0.22, "gravityY":0.78, "gravityZ":0.58, "accX":-0.01, "accY":-0.02, "accZ":-0.01, "rotX":-0.22, "rotY":-0.16, "rotZ":0.22, "attRoll":2.8, "attPitch":-0.9, "attYaw":2.8, "fallenDown":0, "bullying":0},
 {"id":40, "studentId":"student6GyJXu", "beginTime":"2020-05-25 09:23:39", "endTime":"2020-05-25 09:24:09", "audioText":"non-transcribable", "sentiment":"NEUTRAL", "bpm":91, "long":126.95253749561755, "lat":37.44896136157719, "gravityX":0.3, "gravityY":0.7, "gravityZ":0.65, "accX":0.05, "accY":0.01, "accZ":0.04, "rotX":0.2, "rotY":0.46, "rotZ":-0.59, "attRoll":2.7, "attPitch":-0.8, "attYaw":2.8, "fallenDown":0, "bullying":0},
 {"id":41, "studentId":"studentYWUGA5", "beginTime":"2020-05-25 09:44:30", "endTime":"2020-05-25 09:45:00", "audioText":"\uc0b4\ub2e4 \ubcf4\uba74\uc740 \uc2e4\ub9dd\ud560 \ub54c\uac00 \uc788\uc8e0 \uc2a4\uc2a4\ub85c\ud55c\ud14c \ub0b4\uac00 \uc815\ud574 \ub193\uc740 \uc5b4\ub5a4 \ubaa9\ud45c\uac00 \uc788\uc5b4 \ub0b4\uac00 \uc0c1\uc0c1\ud588\ub358 \ubbf8\ub798\uac00 \uc788\uc5b4 \uadfc\ub370 \uac70\uae30\uc5d0 \uba3c\uc800 \uc54c\uc544\uc694 \uc5ec\ub7ec\ubd84 \ub108\ubb34\ub108\ubb34 \uc88b\uc544\ud558\uc2dc\ub294 \uc720\uc7ac\uc11d \uac15\ud638\ub3d9 \uc544\uc2dc\uc8e0 \uadf8\ubd84\ub4e4\uc774 \ucc98\uc74c\uc5d0 \uc5b4\ub5bb\uac8c \ub370\ubdd4\ud588\uace0 \uadf8\ub7f0 \ubaa8\uc2b5 \uc9c0\uae08 \uc9c0\uae08", "sentiment":"NEUTRAL", "bpm":91, "long":126.95241967092953, "lat":37.448881224105385, "gravityX":0.35, "gravityY":0.7, "gravityZ":0.62, "accX":0.01, "accY":-0.02, "accZ":-0.01, "rotX":0.41, "rotY":0.08, "rotZ":-0.01, "attRoll":2.6, "attPitch":-0.8, "attYaw":2.7, "fallenDown":0, "bullying":0},
 {"id":42, "studentId":"studentYWUGA5", "beginTime":"2020-05-25 09:45:00", "endTime":"2020-05-25 09:45:30", "audioText":"\ub0b4\uac00 \ub6f0\uc5b4\ub2e4\ub2c8\ub294 \uac00\ub294 \uac70\uace0 \uadf8\ub7ec\uba74 \uadf8\ub7f0 \uac70 \uae30\uc5b5\ud558\uc796\uc544 \uc9c0\uae08 \uadf8\ub7ec\ub2c8\uae4c \ubb50 \ub2e4 \uc5b4\ub514\uc11c\ub77c\ub3c4 \ud558\uc154\uc57c \ub3fc\uc694 \ubabb \ud558\ub354\ub77c\ub3c4 \ub290\uaef4\uc9c0\ub354\ub77c\ub3c4 \uc5b4\ub514\uc120\uac00\ub294 \uc608\uc57d\uc744 \ud558\uc154\uc57c \ub3fc\uc694 \uc548 \uba48\ucd94\uba74 \ube44\ub85c\uc18c \ubcf4\uc774\ub294 \uac83\ub4e4 \uccab \ubc88\uc9f8\uac8c \uc544\ub2c8\uace0\uc694 \ub450 \ubc88\uc9f8 \ucc45\uc774\uc5d0\uc694 \uccab \ubc88\uc9f8 \uc774\uc81c \ub410\uc5b4\uc694 \uadfc\ub370 \uc81c\uac00 \uc774\uc81c 3\ub144 \ub3d9\uc548 \uc758\ub8cc\uacc4\uc9c0 \uc774\uc81c \uae00 \uc62c\ub838\uc5b4\uc694 \uadfc\ub370", "sentiment":"POSITIVE", "bpm":97, "long":126.95241967092953, "lat":37.448881224105385, "gravityX":0.29, "gravityY":0.72, "gravityZ":0.63, "accX":-0.01, "accY":-0.04, "accZ":-0.03, "rotX":-0.61, "rotY":-0.31, "rotZ":-0.11, "attRoll":2.7, "attPitch":-0.8, "attYaw":2.8, "fallenDown":0, "bullying":0},
 {"id":43, "studentId":"studentYWUGA5", "beginTime":"2020-05-25 09:45:30", "endTime":"2020-05-25 09:46:00", "audioText":"\uc774\uc81c \ucc45 \ud55c \uad8c \ubd84\ub7c9\uc774 \uc5b4\ub5bb\uac8c \ub098\uc628 \uac70\uc608\uc694 \uc548 \uc4f0\ub294 \ubd84\ub4e4\uc774 \uadf8\ub7ec\uba74", "sentiment":"NEUTRAL", "bpm":98, "long":126.95237171928443, "lat":37.44891233192245, "gravityX":0.22, "gravityY":0.84, "gravityZ":0.49, "accX":-0.02, "accY":0.06, "accZ":0.01, "rotX":0.45, "rotY":0.08, "rotZ":-0.01, "attRoll":2.7, "attPitch":-1.0, "attYaw":2.9, "fallenDown":0, "bullying":0},
 {"id":44, "studentId":"studentYWUGA5", "beginTime":"2020-05-25 09:46:00", "endTime":"2020-05-25 09:46:30", "audioText":"non-transcribable", "sentiment":"NEUTRAL", "bpm":98, "long":126.952405705045, "lat":37.44892652684717, "gravityX":0.35, "gravityY":0.07, "gravityZ":-0.94, "accX":0.06, "accY":-0.55, "accZ":-0.06, "rotX":-0.9, "rotY":-1.29, "rotZ":-0.78, "attRoll":0.4, "attPitch":-0.1, "attYaw":0.0, "fallenDown":0, "bullying":0},
 {"id":45, "studentId":"studentYWUGA5", "beginTime":"2020-05-25 09:46:31", "endTime":"2020-05-25 09:47:01", "audioText":"non-transcribable", "sentiment":"NEUTRAL", "bpm":97, "long":126.95239174809934, "lat":37.44892892337595, "gravityX":0.02, "gravityY":-0.2, "gravityZ":-0.98, "accX":0.31, "accY":0.41, "accZ":0.0, "rotX":0.64, "rotY":-0.8, "rotZ":-0.56, "attRoll":0.0, "attPitch":0.2, "attYaw":0.0, "fallenDown":0, "bullying":0},
 {"id":46, "studentId":"studentYWUGA5", "beginTime":"2020-05-25 09:47:01", "endTime":"2020-05-25 09:47:31", "audioText":"\ub0b4\uac00 \ubb58 \ub4e4\uace0\uac8c \uc788\ub294\ub370 \uadf8\uac70\ub294", "sentiment":"NEUTRAL", "bpm":96, "long":126.95241858513305, "lat":37.448874595928714, "gravityX":-0.02, "gravityY":-0.37, "gravityZ":-0.93, "accX":-0.01, "accY":0.04, "accZ":0.02, "rotX":0.01, "rotY":0.0, "rotZ":-0.05, "attRoll":0.0, "attPitch":0.4, "attYaw":0.0, "fallenDown":0, "bullying":0},
 {"id":47, "studentId":"studentIRY5Oh", "beginTime":"2020-05-25 09:50:49", "endTime":"2020-05-25 09:51:19", "audioText":"\uc5b4\ub5a4 \uc2dd\uc73c\ub85c \ud574\uc57c \ub418\ub294\uad6c\ub098", "sentiment":"NEUTRAL", "bpm":96, "long":126.95236743804601, "lat":37.44891672033797, "gravityX":-0.01, "gravityY":-0.07, "gravityZ":-1.0, "accX":0.08, "accY":0.05, "accZ":0.03, "rotX":-1.53, "rotY":-0.15, "rotZ":2.37, "attRoll":0.0, "attPitch":0.1, "attYaw":0.4, "fallenDown":0, "bullying":0},
 {"id":48, "studentId":"studentIRY5Oh", "beginTime":"2020-05-25 09:51:20", "endTime":"2020-05-25 09:51:50", "audioText":"\ub0b4\uac00 \ubb58 \ub4e4\uace0\uac8c \uc788\ub294\ub370 \uadf8\uac70\ub294", "sentiment":"NEUTRAL", "bpm":93, "long":126.95232230423579, "lat":37.44890285505061, "gravityX":0.11, "gravityY":-0.44, "gravityZ":-0.89, "accX":0.09, "accY":0.17, "accZ":-0.03, "rotX":0.88, "rotY":0.07, "rotZ":0.05, "attRoll":0.1, "attPitch":0.5, "attYaw":0.9, "fallenDown":0, "bullying":0},
 {"id":49, "studentId":"studentIRY5Oh", "beginTime":"2020-05-25 09:51:53", "endTime":"2020-05-25 09:51:56", "audioText":"non-transcribable", "sentiment":"NEUTRAL", "bpm":93, "long":126.95236164664101, "lat":37.44890872396371, "gravityX":0.0, "gravityY":-0.48, "gravityZ":-0.88, "accX":0.03, "accY":-0.05, "accZ":0.01, "rotX":0.09, "rotY":-0.11, "rotZ":-0.1, "attRoll":0.0, "attPitch":0.5, "attYaw":0.8, "fallenDown":0, "bullying":0},
 {"id":50, "studentId":"studentIRY5Oh", "beginTime":"2020-05-25 09:54:25", "endTime":"2020-05-25 09:54:55", "audioText":"\uc194\uc9c1\ud788", "sentiment":"NEUTRAL", "bpm":94, "long":126.95245698801149, "lat":37.44896963129067, "gravityX":0.03, "gravityY":-0.35, "gravityZ":-0.94, "accX":0.05, "accY":0.04, "accZ":-0.11, "rotX":-0.39, "rotY":-0.32, "rotZ":-0.27, "attRoll":0.0, "attPitch":0.4, "attYaw":0.8, "fallenDown":0, "bullying":0},
 {"id":51, "studentId":"studentIRY5Oh", "beginTime":"2020-05-25 09:54:55", "endTime":"2020-05-25 09:55:25", "audioText":"\uc800\ub3c4 \uc0ac\uc2e4 \ucde8\uc5c5 \ub54c\ubb38\uc5d0 \ub418\uac8c \ud798\ub4e4\uc5c8\uac70\ub4e0\uc694 \uc6c3\uae30\uc9c0 \uc54a\uc544\uc694", "sentiment":"POSITIVE", "bpm":94, "long":126.95237300816756, "lat":37.44892243710343, "gravityX":-0.31, "gravityY":0.92, "gravityZ":-0.25, "accX":-0.31, "accY":0.29, "accZ":0.67, "rotX":-14.05, "rotY":-1.57, "rotZ":-2.48, "attRoll":-0.9, "attPitch":-1.2, "attYaw":-0.2, "fallenDown":0, "bullying":0},
 {"id":52, "studentId":"studentIRY5Oh", "beginTime":"2020-05-25 09:55:25", "endTime":"2020-05-25 09:55:55", "audioText":"\uc11c\ub958\ub97c \uc774\uc81c \uc811\uc218\ub97c \ud558\uba74\uc740 200\uba85 300\uba85 \ub098\uc628\ub2e4 \uc774\uc81c \ud55c 20\uba85 \uc904\uc5ec\uc694 \ub450 \uba85\uc778\ub370 \ud1b5\uacfc \ud558\uba74\uc740 \uadf8 \uc0ac\ub78c\ub4e4\uacfc 30\ubd84\uc529 \uc778\ud130\ubdf0\ub97c \uc778\ud130\ubdf0\ub97c \ud558\uba74\uc740 \ub610 \ud55c \uc138 \uba85\uc73c\ub85c \ub5a8\uc5b4\ub728\ub824\uc694 \uadf8\ub798\uc11c \uc774\ucc38\uc5d0 \ub9c8\uc9c0\ub9c9 \uc778\ud130\ubdf0\ub97c \uc5b4\ub514\uc11c \ud558\ub824\uba74", "sentiment":"NEUTRAL", "bpm":98, "long":126.95249996385382, "lat":37.449008976899975, "gravityX":-0.03, "gravityY":-0.37, "gravityZ":-0.93, "accX":-0.07, "accY":0.05, "accZ":0.04, "rotX":0.41, "rotY":-0.16, "rotZ":-0.22, "attRoll":0.0, "attPitch":0.4, "attYaw":0.0, "fallenDown":1, "bullying":0},
 {"id":53, "studentId":"studentIRY5Oh", "beginTime":"2020-05-25 09:55:55", "endTime":"2020-05-25 09:56:25", "audioText":"non-transcribable", "sentiment":"NEUTRAL", "bpm":98, "long":126.95234300815697, "lat":37.448901106471695, "gravityX":-0.07, "gravityY":-0.41, "gravityZ":-0.91, "accX":0.05, "accY":0.0, "accZ":-0.01, "rotX":0.22, "rotY":-0.07, "rotZ":-0.21, "attRoll":-0.1, "attPitch":0.4, "attYaw":0.0, "fallenDown":0, "bullying":0},
 {"id":54, "studentId":"student5yIzbG", "beginTime":"2020-05-25 10:04:01", "endTime":"2020-05-25 10:04:02", "audioText":"non-transcribable", "sentiment":"NEUTRAL", "bpm":97, "long":126.95229766843462, "lat":37.44889778149737, "gravityX":-0.05, "gravityY":-0.46, "gravityZ":-0.88, "accX":0.05, "accY":-0.03, "accZ":0.02, "rotX":-0.14, "rotY":-0.13, "rotZ":-0.04, "attRoll":-0.1, "attPitch":0.5, "attYaw":-0.1, "fallenDown":0, "bullying":0},
 {"id":55, "studentId":"student5yIzbG", "beginTime":"2020-05-25 10:06:19", "endTime":"2020-05-25 10:06:49", "audioText":"non-transcribable", "sentiment":"NEUTRAL", "bpm":97, "long":126.95220224530412, "lat":37.44878871345667, "gravityX":-0.14, "gravityY":-0.45, "gravityZ":-0.88, "accX":0.04, "accY":-0.01, "accZ":0.0, "rotX":0.15, "rotY":-0.21, "rotZ":-0.29, "attRoll":-0.2, "attPitch":0.5, "attYaw":-0.3, "fallenDown":0, "bullying":0},
 {"id":56, "studentId":"studenteqQqC8", "beginTime":"2020-05-25 10:11:46", "endTime":"2020-05-25 10:12:16", "audioText":"\uc0ac\uc2e4 \uadf8 \uba48\ucd94\uba74 \ube44\ub85c\uc18c \ubcf4\uc774\ub294 \uac83\ub4e4 \uccab \ubc88\uc9f8\uac8c \uc544\ub2c8\uace0\uc694 \ub450 \ubc88\uc9f8 \uc138 \uac1c\uc608\uc694 \uccab \ubc88\uc9f8 \uc774\uc81c \uc80a\uc740 \ub0a0\uc758 \uae68\ub2ec\uc74c \ucc45\uc744 \ub410\uc5b4\uc694 \uadfc\ub370 \uc81c\uac00 \uc774\uc81c 3\ub144 \ub3d9\uc548 \uc758\ub8cc \uae30\uc9c0 \uc2e0\ubb38\uc774\ub780 \ub0b4\uac00 \uc774\uc81c \uae00 \uc62c\ub838\uc5b4\uc694 \uadfc\ub370 \uc62c\ub9ac\ub098 \ubcf4\ub2c8\uae4c \uadf8 \uae00\ub4e4\uc774 \uc774\uc81c \ucc45 1\uad8c \ubd84\ub7c9 \uc774\ub807\uac8c \ub098\uc628 \uac70\uc608\uc694 \ub0b4\uac00 \ub204\uad70\uc9c0 \uc544\uc2dc\ub294 \ubd84\ub4e4\uc774 \uc544 \uadf8\ub7ec\uba74 \uadf8\uac70 \ubaa8\uc544\uac00\uc9c0\uace0 \ucc45\uc744 \ud55c\ubc88 \ub0b4 \ubcf4\uc9c0 \uc54a\uaca0\ub0d0\uace0 \uadf8\ub7ec\ub2c8\uae4c \uadf8\ub798", "sentiment":"NEUTRAL", "bpm":98, "long":126.95243714123777, "lat":37.44891833600712, "gravityX":-0.23, "gravityY":0.95, "gravityZ":-0.2, "accX":-0.05, "accY":0.78, "accZ":-0.18, "rotX":4.43, "rotY":0.05, "rotZ":0.4, "attRoll":-0.9, "attPitch":-1.3, "attYaw":-1.0, "fallenDown":1, "bullying":0},
 {"id":57, "studentId":"studentGuZtvX", "beginTime":"2020-05-25 10:41:00", "endTime":"2020-05-25 10:41:01", "audioText":"non-transcribable", "sentiment":"NEUTRAL", "bpm":98, "long":126.95231817110921, "lat":37.44885762733303, "gravityX":-0.13, "gravityY":-0.37, "gravityZ":-0.92, "accX":0.04, "accY":-0.06, "accZ":0.06, "rotX":-0.78, "rotY":0.52, "rotZ":1.15, "attRoll":-0.1, "attPitch":0.4, "attYaw":-0.2, "fallenDown":0, "bullying":0},
 {"id":58, "studentId":"studentGuZtvX", "beginTime":"2020-05-25 10:41:01", "endTime":"2020-05-25 10:41:02", "audioText":"non-transcribable", "sentiment":"NEUTRAL", "bpm":98, "long":126.9524796226974, "lat":37.44892533952899, "gravityX":-0.19, "gravityY":0.16, "gravityZ":-0.97, "accX":0.12, "accY":0.19, "accZ":0.12, "rotX":0.79, "rotY":0.91, "rotZ":-0.71, "attRoll":-0.2, "attPitch":-0.2, "attYaw":0.1, "fallenDown":0, "bullying":0},
 {"id":59, "studentId":"studentGuZtvX", "beginTime":"2020-05-25 10:41:01", "endTime":"2020-05-25 10:41:02", "audioText":"non-transcribable", "sentiment":"NEUTRAL", "bpm":98, "long":126.95242492774061, "lat":37.448905414426804, "gravityX":-0.11, "gravityY":0.29, "gravityZ":-0.95, "accX":-0.03, "accY":0.0, "accZ":-0.01, "rotX":0.01, "rotY":0.02, "rotZ":0.19, "attRoll":-0.1, "attPitch":-0.3, "attYaw":0.1, "fallenDown":0, "bullying":0},
 {"id":60, "studentId":"studentGuZtvX", "beginTime":"2020-05-25 10:41:03", "endTime":"2020-05-25 10:41:04", "audioText":"non-transcribable", "sentiment":"NEUTRAL", "bpm":91, "long":126.95247733824692, "lat":37.44892366892592, "gravityX":-0.38, "gravityY":0.17, "gravityZ":-0.91, "accX":0.26, "accY":-0.29, "accZ":-0.02, "rotX":1.13, "rotY":-0.51, "rotZ":1.39, "attRoll":-0.4, "attPitch":-0.2, "attYaw":0.3, "fallenDown":0, "bullying":0},
 {"id":61, "studentId":"studentGuZtvX", "beginTime":"2020-05-25 10:41:12", "endTime":"2020-05-25 10:41:13", "audioText":"non-transcribable", "sentiment":"NEUTRAL", "bpm":91, "long":126.95246266790922, "lat":37.44891294125747, "gravityX":-0.26, "gravityY":0.3, "gravityZ":-0.92, "accX":-0.07, "accY":0.04, "accZ":0.13, "rotX":2.97, "rotY":1.58, "rotZ":0.15, "attRoll":-0.3, "attPitch":-0.3, "attYaw":1.0, "fallenDown":0, "bullying":0},
 {"id":62, "studentId":"studentDtSZj5", "beginTime":"2020-05-25 10:42:41", "endTime":"2020-05-25 10:42:42", "audioText":"non-transcribable", "sentiment":"NEUTRAL", "bpm":94, "long":126.95245112797795, "lat":37.448904502695335, "gravityX":0.03, "gravityY":-0.3, "gravityZ":-0.95, "accX":-0.02, "accY":0.01, "accZ":-0.01, "rotX":0.04, "rotY":0.01, "rotZ":-0.03, "attRoll":0.0, "attPitch":0.3, "attYaw":0.0, "fallenDown":0, "bullying":0},
 {"id":63, "studentId":"studentDtSZj5", "beginTime":"2020-05-25 10:42:41", "endTime":"2020-05-25 10:42:42", "audioText":"non-transcribable", "sentiment":"NEUTRAL", "bpm":91, "long":126.95244205047642, "lat":37.448897864782246, "gravityX":0.02, "gravityY":-0.26, "gravityZ":-0.96, "accX":0.06, "accY":-0.01, "accZ":0.01, "rotX":-0.22, "rotY":-0.18, "rotZ":0.0, "attRoll":0.0, "attPitch":0.3, "attYaw":0.0, "fallenDown":0, "bullying":0},
 {"id":64, "studentId":"studentDtSZj5", "beginTime":"2020-05-25 10:42:42", "endTime":"2020-05-25 10:42:43", "audioText":"non-transcribable", "sentiment":"NEUTRAL", "bpm":91, "long":126.95237523355938, "lat":37.44893181493258, "gravityX":0.03, "gravityY":-0.27, "gravityZ":-0.96, "accX":0.0, "accY":-0.01, "accZ":0.0, "rotX":-0.01, "rotY":0.05, "rotZ":-0.06, "attRoll":0.0, "attPitch":0.3, "attYaw":0.0, "fallenDown":0, "bullying":0},
 {"id":65, "studentId":"studentDtSZj5", "beginTime":"2020-05-25 10:42:43", "endTime":"2020-05-25 10:42:44", "audioText":"non-transcribable", "sentiment":"NEUTRAL", "bpm":91, "long":126.95242807513338, "lat":37.448887645319466, "gravityX":0.03, "gravityY":-0.26, "gravityZ":-0.96, "accX":-0.01, "accY":0.0, "accZ":-0.01, "rotX":0.03, "rotY":0.01, "rotZ":-0.08, "attRoll":0.0, "attPitch":0.3, "attYaw":0.0, "fallenDown":0, "bullying":0},
 {"id":66, "studentId":"studentDtSZj5", "beginTime":"2020-05-25 10:42:44", "endTime":"2020-05-25 10:42:45", "audioText":"non-transcribable", "sentiment":"NEUTRAL", "bpm":89, "long":126.95241804358923, "lat":37.44888030978353, "gravityX":0.05, "gravityY":-0.19, "gravityZ":-0.98, "accX":0.07, "accY":0.04, "accZ":0.02, "rotX":-0.24, "rotY":0.01, "rotZ":0.06, "attRoll":0.1, "attPitch":0.2, "attYaw":0.0, "fallenDown":0, "bullying":0},
 {"id":67, "studentId":"studentDtSZj5", "beginTime":"2020-05-25 10:42:44", "endTime":"2020-05-25 10:42:45", "audioText":"non-transcribable", "sentiment":"NEUTRAL", "bpm":89, "long":126.95237453570431, "lat":37.44890374467361, "gravityX":-0.12, "gravityY":0.5, "gravityZ":-0.86, "accX":-0.18, "accY":0.27, "accZ":0.06, "rotX":-1.44, "rotY":-1.24, "rotZ":1.02, "attRoll":-0.1, "attPitch":-0.5, "attYaw":0.2, "fallenDown":0, "bullying":0},
 {"id":68, "studentId":"studentDtSZj5", "beginTime":"2020-05-25 10:42:45", "endTime":"2020-05-25 10:42:46", "audioText":"non-transcribable", "sentiment":"NEUTRAL", "bpm":91, "long":126.95240400771357, "lat":37.44891129097614, "gravityX":-0.19, "gravityY":0.67, "gravityZ":-0.72, "accX":-0.01, "accY":0.01, "accZ":0.0, "rotX":0.03, "rotY":0.01, "rotZ":-0.02, "attRoll":-0.3, "attPitch":-0.7, "attYaw":0.3, "fallenDown":0, "bullying":0},
 {"id":69, "studentId":"studentDtSZj5", "beginTime":"2020-05-25 10:43:15", "endTime":"2020-05-25 10:43:45", "audioText":"non-transcribable", "sentiment":"NEUTRAL", "bpm":91, "long":126.95251033469992, "lat":37.44894365876742, "gravityX":0.06, "gravityY":-0.22, "gravityZ":-0.97, "accX":0.01, "accY":0.03, "accZ":-0.02, "rotX":0.01, "rotY":-0.03, "rotZ":-0.02, "attRoll":0.1, "attPitch":0.2, "attYaw":0.0, "fallenDown":0, "bullying":0},
 {"id":70, "studentId":"studentDtSZj5", "beginTime":"2020-05-25 10:43:57", "endTime":"2020-05-25 10:44:01", "audioText":"non-transcribable", "sentiment":"NEUTRAL", "bpm":91, "long":126.95241100209584, "lat":37.448934532701095, "gravityX":-0.2, "gravityY":0.67, "gravityZ":-0.71, "accX":0.0, "accY":0.01, "accZ":-0.01, "rotX":0.04, "rotY":0.0, "rotZ":-0.01, "attRoll":-0.3, "attPitch":-0.7, "attYaw":0.3, "fallenDown":0, "bullying":0},
 {"id":71, "studentId":"studentDtSZj5", "beginTime":"2020-05-25 10:43:43", "endTime":"2020-05-25 10:43:52", "audioText":"non-transcribable", "sentiment":"NEUTRAL", "bpm":91, "long":126.95240858710584, "lat":37.44887339477256, "gravityX":-0.2, "gravityY":0.67, "gravityZ":-0.72, "accX":0.0, "accY":0.01, "accZ":0.0, "rotX":-0.03, "rotY":-0.02, "rotZ":0.01, "attRoll":-0.3, "attPitch":-0.7, "attYaw":0.3, "fallenDown":0, "bullying":0},
 {"id":72, "studentId":"studentDtSZj5", "beginTime":"2020-05-25 10:43:53", "endTime":"2020-05-25 10:44:01", "audioText":"non-transcribable", "sentiment":"NEUTRAL", "bpm":91, "long":126.95250732952547, "lat":37.44898821357893, "gravityX":-0.2, "gravityY":0.67, "gravityZ":-0.71, "accX":-0.02, "accY":0.0, "accZ":-0.01, "rotX":0.05, "rotY":0.02, "rotZ":0.01, "attRoll":-0.3, "attPitch":-0.7, "attYaw":0.3, "fallenDown":0, "bullying":0},
 {"id":73, "studentId":"studentDtSZj5", "beginTime":"2020-05-25 10:43:58", "endTime":"2020-05-25 10:43:59", "audioText":"non-transcribable", "sentiment":"NEUTRAL", "bpm":91, "long":126.95240858710584, "lat":37.44887339477256, "gravityX":-0.2, "gravityY":0.67, "gravityZ":-0.72, "accX":0.01, "accY":0.01, "accZ":0.01, "rotX":0.03, "rotY":-0.03, "rotZ":0.01, "attRoll":-0.3, "attPitch":-0.7, "attYaw":0.3, "fallenDown":0, "bullying":0},
 {"id":74, "studentId":"studentDtSZj5", "beginTime":"2020-05-25 10:45:07", "endTime":"2020-05-25 10:45:37", "audioText":"non-transcribable", "sentiment":"NEUTRAL", "bpm":91, "long":126.95236766012906, "lat":37.44890790006993, "gravityX":-0.21, "gravityY":0.67, "gravityZ":-0.71, "accX":0.0, "accY":0.0, "accZ":0.0, "rotX":0.01, "rotY":0.01, "rotZ":-0.01, "attRoll":-0.3, "attPitch":-0.7, "attYaw":0.3, "fallenDown":0, "bullying":0},
 {"id":75, "studentId":"studentDtSZj5", "beginTime":"2020-05-25 10:45:37", "endTime":"2020-05-25 10:46:07", "audioText":"non-transcribable", "sentiment":"NEUTRAL", "bpm":91, "long":126.95240858710584, "lat":37.44887339477256, "gravityX":-0.21, "gravityY":0.67, "gravityZ":-0.71, "accX":-0.01, "accY":-0.01, "accZ":0.0, "rotX":-0.03, "rotY":0.01, "rotZ":0.0, "attRoll":-0.3, "attPitch":-0.7, "attYaw":0.3, "fallenDown":0, "bullying":0},
 {"id":76, "studentId":"studentDtSZj5", "beginTime":"2020-05-25 10:46:07", "endTime":"2020-05-25 10:46:37", "audioText":"non-transcribable", "sentiment":"NEUTRAL", "bpm":91, "long":126.95240858710584, "lat":37.44887339477256, "gravityX":-0.2, "gravityY":0.66, "gravityZ":-0.72, "accX":0.0, "accY":0.0, "accZ":0.0, "rotX":-0.02, "rotY":-0.01, "rotZ":-0.01, "attRoll":-0.3, "attPitch":-0.7, "attYaw":0.3, "fallenDown":0, "bullying":0},
 {"id":77, "studentId":"studentGuZtvX", "beginTime":"2020-05-25 10:41:44", "endTime":"2020-05-25 10:42:14", "audioText":"non-transcribable", "sentiment":"NEUTRAL", "bpm":91, "long":126.95212998820199, "lat":37.448749042502826, "gravityX":-0.22, "gravityY":0.43, "gravityZ":-0.87, "accX":-0.18, "accY":0.0, "accZ":-0.23, "rotX":3.24, "rotY":0.74, "rotZ":-1.5, "attRoll":-0.3, "attPitch":-0.4, "attYaw":0.2, "fallenDown":1, "bullying":0},
 {"id":78, "studentId":"studentDtSZj5", "beginTime":"2020-05-25 10:46:37", "endTime":"2020-05-25 10:47:07", "audioText":"non-transcribable", "sentiment":"NEUTRAL", "bpm":97, "long":126.95210711911028, "lat":37.44874120822289, "gravityX":-0.2, "gravityY":0.66, "gravityZ":-0.72, "accX":0.0, "accY":0.0, "accZ":-0.01, "rotX":0.01, "rotY":-0.01, "rotZ":0.0, "attRoll":-0.3, "attPitch":-0.7, "attYaw":0.3, "fallenDown":0, "bullying":0},
 {"id":79, "studentId":"studentDtSZj5", "beginTime":"2020-05-25 10:47:08", "endTime":"2020-05-25 10:47:38", "audioText":"non-transcribable", "sentiment":"NEUTRAL", "bpm":97, "long":126.9520964177409, "lat":37.448737542271765, "gravityX":-0.01, "gravityY":-0.25, "gravityZ":-0.97, "accX":0.01, "accY":0.01, "accZ":-0.01, "rotX":-0.03, "rotY":-0.09, "rotZ":-0.06, "attRoll":0.0, "attPitch":0.2, "attYaw":0.0, "fallenDown":0, "bullying":0},
 {"id":80, "studentId":"studentDtSZj5", "beginTime":"2020-05-25 10:47:38", "endTime":"2020-05-25 10:48:08", "audioText":"non-transcribable", "sentiment":"NEUTRAL", "bpm":97, "long":126.95203878882276, "lat":37.44870047420443, "gravityX":-0.2, "gravityY":0.67, "gravityZ":-0.72, "accX":0.0, "accY":0.0, "accZ":0.0, "rotX":0.01, "rotY":-0.01, "rotZ":0.01, "attRoll":-0.3, "attPitch":-0.7, "attYaw":0.3, "fallenDown":0, "bullying":0},
 {"id":81, "studentId":"studentDtSZj5", "beginTime":"2020-05-25 10:48:08", "endTime":"2020-05-25 10:48:38", "audioText":"non-transcribable", "sentiment":"NEUTRAL", "bpm":97, "long":126.95218441232808, "lat":37.44874539167152, "gravityX":-0.21, "gravityY":0.67, "gravityZ":-0.71, "accX":0.0, "accY":0.0, "accZ":0.0, "rotX":-0.01, "rotY":0.0, "rotZ":0.0, "attRoll":-0.3, "attPitch":-0.7, "attYaw":0.3, "fallenDown":0, "bullying":0},
 {"id":82, "studentId":"studentDtSZj5", "beginTime":"2020-05-25 10:48:38", "endTime":"2020-05-25 10:49:08", "audioText":"non-transcribable", "sentiment":"NEUTRAL", "bpm":86, "long":126.95217038319839, "lat":37.448741545681735, "gravityX":-0.02, "gravityY":-0.23, "gravityZ":-0.97, "accX":0.01, "accY":0.03, "accZ":0.01, "rotX":0.15, "rotY":0.0, "rotZ":-0.05, "attRoll":0.0, "attPitch":0.2, "attYaw":-0.1, "fallenDown":0, "bullying":0},
 {"id":83, "studentId":"studentGuZtvX", "beginTime":"2020-05-25 10:42:14", "endTime":"2020-05-25 10:42:44", "audioText":"non-transcribable", "sentiment":"NEUTRAL", "bpm":83, "long":126.95212681023061, "lat":37.448688642792376, "gravityX":0.0, "gravityY":-0.24, "gravityZ":-0.97, "accX":0.0, "accY":0.02, "accZ":0.0, "rotX":0.24, "rotY":0.05, "rotZ":0.05, "attRoll":0.0, "attPitch":0.2, "attYaw":-0.1, "fallenDown":0, "bullying":0},
 {"id":84, "studentId":"studentDtSZj5", "beginTime":"2020-05-25 10:49:09", "endTime":"2020-05-25 10:49:39", "audioText":"non-transcribable", "sentiment":"NEUTRAL", "bpm":82, "long":126.95210483827823, "lat":37.44868552611653, "gravityX":0.01, "gravityY":-0.23, "gravityZ":-0.97, "accX":0.0, "accY":0.01, "accZ":0.0, "rotX":0.09, "rotY":0.02, "rotZ":-0.01, "attRoll":0.0, "attPitch":0.2, "attYaw":-0.1, "fallenDown":0, "bullying":0},
 {"id":85, "studentId":"studentGuZtvX", "beginTime":"2020-05-25 10:42:44", "endTime":"2020-05-25 10:43:14", "audioText":"non-transcribable", "sentiment":"NEUTRAL", "bpm":82, "long":126.9522282812808, "lat":37.44871024502465, "gravityX":-0.03, "gravityY":-0.25, "gravityZ":-0.97, "accX":0.0, "accY":0.01, "accZ":0.02, "rotX":0.05, "rotY":0.08, "rotZ":0.22, "attRoll":0.0, "attPitch":0.3, "attYaw":0.0, "fallenDown":0, "bullying":0},
 {"id":86, "studentId":"studentGuZtvX", "beginTime":"2020-05-25 10:43:14", "endTime":"2020-05-25 10:43:44", "audioText":"non-transcribable", "sentiment":"NEUTRAL", "bpm":83, "long":126.95211967961653, "lat":37.4486887702386, "gravityX":0.02, "gravityY":-0.24, "gravityZ":-0.97, "accX":0.01, "accY":-0.01, "accZ":0.01, "rotX":-0.04, "rotY":0.01, "rotZ":-0.06, "attRoll":0.0, "attPitch":0.2, "attYaw":-0.1, "fallenDown":0, "bullying":0},
 {"id":87, "studentId":"studentGuZtvX", "beginTime":"2020-05-25 10:46:46", "endTime":"2020-05-25 10:47:16", "audioText":"non-transcribable", "sentiment":"NEUTRAL", "bpm":84, "long":126.9522372194418, "lat":37.44877715113346, "gravityX":0.01, "gravityY":-0.24, "gravityZ":-0.97, "accX":0.0, "accY":-0.01, "accZ":0.0, "rotX":-0.01, "rotY":0.04, "rotZ":0.03, "attRoll":0.0, "attPitch":0.2, "attYaw":-0.1, "fallenDown":0, "bullying":0},
 {"id":88, "studentId":"studentGuZtvX", "beginTime":"2020-05-25 10:48:48", "endTime":"2020-05-25 10:49:18", "audioText":"non-transcribable", "sentiment":"NEUTRAL", "bpm":85, "long":126.95200193428936, "lat":37.448688368710805, "gravityX":0.03, "gravityY":-0.41, "gravityZ":-0.91, "accX":0.1, "accY":0.04, "accZ":0.1, "rotX":-0.82, "rotY":-0.78, "rotZ":0.22, "attRoll":0.0, "attPitch":0.4, "attYaw":0.1, "fallenDown":0, "bullying":0},
 {"id":89, "studentId":"studentGuZtvX", "beginTime":"2020-05-25 10:50:49", "endTime":"2020-05-25 10:51:19", "audioText":"non-transcribable", "sentiment":"NEUTRAL", "bpm":84, "long":126.95226976882172, "lat":37.44871737285716, "gravityX":0.01, "gravityY":0.32, "gravityZ":-0.95, "accX":0.06, "accY":0.04, "accZ":0.01, "rotX":-1.11, "rotY":-0.18, "rotZ":0.14, "attRoll":0.0, "attPitch":-0.3, "attYaw":0.1, "fallenDown":0, "bullying":0},
 {"id":90, "studentId":"studentGuZtvX", "beginTime":"2020-05-25 10:50:18", "endTime":"2020-05-25 10:50:48", "audioText":"non-transcribable", "sentiment":"NEUTRAL", "bpm":90, "long":126.9521763832074, "lat":37.44875487441869, "gravityX":0.01, "gravityY":0.41, "gravityZ":-0.91, "accX":0.02, "accY":0.0, "accZ":-0.01, "rotX":-0.1, "rotY":0.02, "rotZ":0.08, "attRoll":0.0, "attPitch":-0.4, "attYaw":0.1, "fallenDown":0, "bullying":0},
 {"id":91, "studentId":"studentGuZtvX", "beginTime":"2020-05-25 10:54:51", "endTime":"2020-05-25 10:55:21", "audioText":"non-transcribable", "sentiment":"NEUTRAL", "bpm":93, "long":126.95230874094915, "lat":37.44878838531896, "gravityX":0.0, "gravityY":-0.12, "gravityZ":-0.99, "accX":0.02, "accY":0.0, "accZ":-0.08, "rotX":-0.7, "rotY":-0.15, "rotZ":-0.19, "attRoll":0.0, "attPitch":0.1, "attYaw":0.1, "fallenDown":0, "bullying":0},
 {"id":92, "studentId":"studentGuZtvX", "beginTime":"2020-05-25 10:55:51", "endTime":"2020-05-25 10:56:21", "audioText":"non-transcribable", "sentiment":"NEUTRAL", "bpm":95, "long":126.95224204002115, "lat":37.448784699536375, "gravityX":0.02, "gravityY":0.41, "gravityZ":-0.91, "accX":0.0, "accY":0.0, "accZ":0.0, "rotX":0.0, "rotY":-0.01, "rotZ":0.01, "attRoll":0.0, "attPitch":-0.4, "attYaw":0.1, "fallenDown":0, "bullying":0},
 {"id":93, "studentId":"studentGuZtvX", "beginTime":"2020-05-25 10:58:53", "endTime":"2020-05-25 10:59:23", "audioText":"non-transcribable", "sentiment":"NEUTRAL", "bpm":93, "long":126.9523889851443, "lat":37.448783635294696, "gravityX":0.02, "gravityY":0.41, "gravityZ":-0.91, "accX":0.0, "accY":0.01, "accZ":0.0, "rotX":0.08, "rotY":-0.01, "rotZ":0.0, "attRoll":0.0, "attPitch":-0.4, "attYaw":0.1, "fallenDown":0, "bullying":0},
 {"id":94, "studentId":"studentGuZtvX", "beginTime":"2020-05-25 10:58:23", "endTime":"2020-05-25 10:58:53", "audioText":"non-transcribable", "sentiment":"NEUTRAL", "bpm":83, "long":126.95221329668895, "lat":37.44876108879737, "gravityX":0.04, "gravityY":0.04, "gravityZ":-1.0, "accX":0.02, "accY":-0.02, "accZ":0.01, "rotX":0.01, "rotY":-0.03, "rotZ":0.02, "attRoll":0.0, "attPitch":0.0, "attYaw":0.1, "fallenDown":0, "bullying":0},
 {"id":95, "studentId":"studentGuZtvX", "beginTime":"2020-05-25 11:02:25", "endTime":"2020-05-25 11:02:55", "audioText":"non-transcribable", "sentiment":"NEUTRAL", "bpm":83, "long":126.952049485563, "lat":37.448692092982846, "gravityX":0.03, "gravityY":0.09, "gravityZ":-1.0, "accX":-0.03, "accY":0.0, "accZ":-0.01, "rotX":-0.08, "rotY":-0.04, "rotZ":-0.05, "attRoll":0.0, "attPitch":-0.1, "attYaw":0.1, "fallenDown":0, "bullying":0},
 {"id":96, "studentId":"studentGuZtvX", "beginTime":"2020-05-25 11:02:55", "endTime":"2020-05-25 11:03:25", "audioText":"non-transcribable", "sentiment":"NEUTRAL", "bpm":82, "long":126.95234524930132, "lat":37.44878547662621, "gravityX":0.04, "gravityY":0.06, "gravityZ":-1.0, "accX":0.01, "accY":0.01, "accZ":0.02, "rotX":-0.16, "rotY":0.05, "rotZ":0.01, "attRoll":0.0, "attPitch":-0.1, "attYaw":0.1, "fallenDown":0, "bullying":0},
 {"id":97, "studentId":"studentGuZtvX", "beginTime":"2020-05-25 11:05:27", "endTime":"2020-05-25 11:05:57", "audioText":"non-transcribable", "sentiment":"NEUTRAL", "bpm":83, "long":126.95215148716055, "lat":37.44875077000625, "gravityX":0.03, "gravityY":0.11, "gravityZ":-0.99, "accX":0.0, "accY":0.01, "accZ":0.0, "rotX":-0.03, "rotY":0.0, "rotZ":0.0, "attRoll":0.0, "attPitch":-0.1, "attYaw":0.1, "fallenDown":0, "bullying":0},
 {"id":98, "studentId":"studentGuZtvX", "beginTime":"2020-05-25 11:07:28", "endTime":"2020-05-25 11:07:58", "audioText":"non-transcribable", "sentiment":"NEUTRAL", "bpm":78, "long":126.9521909131017, "lat":37.448747898645166, "gravityX":0.04, "gravityY":0.1, "gravityZ":-0.99, "accX":0.0, "accY":0.0, "accZ":0.01, "rotX":0.06, "rotY":0.01, "rotZ":0.03, "attRoll":0.0, "attPitch":-0.1, "attYaw":0.1, "fallenDown":0, "bullying":0},
