[{"id":1, "long":126.95234200337481, "lat":37.44874679679466, "bpm":97.0, "gravity":"grav_x: 0.03, grav_y: -0.28, grav_z: -0.96", "acceleration":"acc_x: -0.07, acc_y: 0.04, acc_z: -0.00", "rotation":"rota_x: 0.25, rota_y: 0.26, rota_z: 0.52", "attitude":"atti_roll: 0.0, atti_pitch: 0.3, atti_yaw: -0.4", "fallenDown":0, "message":"I am student AgnijL (manually). I need help!", "date":"2020-05-11 17:02::47", "studentId":"AgnijL"},
 {"id":2, "long":126.95234200337481, "lat":37.44874679679466, "bpm":92.0, "gravity":"grav_x: -0.02, grav_y: -0.15, grav_z: -0.99", "acceleration":"acc_x: -0.03, acc_y: 0.01, acc_z: -0.01", "rotation":"rota_x: 0.01, rota_y: -0.03, rota_z: -0.04", "attitude":"atti_roll: -0.0, atti_pitch: 0.1, atti_yaw: 0.0", "fallenDown":0, "message":"I am student WS0eP4 (manually). I need help!", "date":"2020-05-11 17:02::49", "studentId":"WS0eP4"},
 {"id":3, "long":126.95234200337481, "lat":37.44874679679466, "bpm":92.0, "gravity":"grav_x: -0.01, grav_y: -0.14, grav_z: -0.99", "acceleration":"acc_x: 0.01, acc_y: 0.01, acc_z: 0.01", "rotation":"rota_x: -0.03, rota_y: 0.07, rota_z: 0.15", "attitude":"atti_roll: -0.0, atti_pitch: 0.1, atti_yaw: 0.1", "fallenDown":0, "message":"I am student e2BcVb (manually). I need help!", "date":"2020-05-11 17:02::50", "studentId":"e2BcVb"},
 {"id":4, "long":126.95234200337481, "lat":37.44874679679466, "bpm":92.0, "gravity":"grav_x: 0.01, grav_y: -0.00, grav_z: -1.00", "acceleration":"acc_x: 0.07, acc_y: 0.01, acc_z: -0.18", "rotation":"rota_x: -0.09, rota_y: 0.00, rota_z: 0.57", "attitude":"atti_roll: 0.0, atti_pitch: 0.0, atti_yaw: 0.2", "fallenDown":0, "message":"I am student CBMiTy (manually). I need help!", "date":"2020-05-11 17:02::51", "studentId":"CBMiTy"},
 {"id":5, "long":126.95234200337481, "lat":37.44874679679466, "bpm":92.0, "gravity":"grav_x: 0.01, grav_y: 0.29, grav_z: -0.96", "acceleration":"acc_x: 0.01, acc_y: 0.03, acc_z: -0.02", "rotation":"rota_x: -0.02, rota_y: 0.02, rota_z: -0.09", "attitude":"atti_roll: 0.0, atti_pitch: -0.3, atti_yaw: 0.3", "fallenDown":0, "message":"I am student dAXIlf (manually). I need help!", "date":"2020-05-11 17:02::51", "studentId":"dAXIlf"},
 {"id":6, "long":126.95234200337481, "lat":37.44874679679466, "bpm":86.0, "gravity":"grav_x: -0.02, grav_y: 0.02, grav_z: -1.00", "acceleration":"acc_x: -0.00, acc_y: 0.11, acc_z: 0.11", "rotation":"rota_x: 0.64, rota_y: -0.11, rota_z: -0.92", "attitude":"atti_roll: -0.0, atti_pitch: -0.0, atti_yaw: -0.1", "fallenDown":0, "message":"I am student YwNQ7l (manually). I need help!", "date":"2020-05-11 17:02::54", "studentId":"YwNQ7l"},
 {"id":7, "long":126.95234200337481, "lat":37.44874679679466, "bpm":86.0, "gravity":"grav_x: -0.08, grav_y: 0.11, grav_z: -0.99", "acceleration":"acc_x: 0.01, acc_y: -0.05, acc_z: 0.00", "rotation":"rota_x: -0.52, rota_y: 0.03, rota_z: -0.38", "attitude":"atti_roll: -0.1, atti_pitch: -0.1, atti_yaw: -0.4", "fallenDown":0, "message":"I am student 2iXjv9 (manually). I need help!", "date":"2020-05-11 17:02::54", "studentId":"2iXjv9"},
 {"id":8, "long":126.95234200337481, "lat":37.44874679679466, "bpm":97.0, "gravity":"grav_x: 0.02, grav_y: -0.26, grav_z: -0.96", "acceleration":"acc_x: 0.04, acc_y: -0.05, acc_z: 0.00", "rotation":"rota_x: -0.97, rota_y: -0.29, rota_z: 0.07", "attitude":"atti_roll: 0.0, atti_pitch: 0.3, atti_yaw: 0.3", "fallenDown":0, "message":"I am student dTHJ7X (manually). I need help!", "date":"2020-05-11 17:04::02", "studentId":"dTHJ7X"},
 {"id":9, "long":126.95234200337481, "lat":37.44874679679466, "bpm":97.0, "gravity":"grav_x: 0.01, grav_y: -0.19, grav_z: -0.98", "acceleration":"acc_x: -0.00, acc_y: -0.00, acc_z: 0.01", "rotation":"rota_x: -0.01, rota_y: -0.02, rota_z: -0.02", "attitude":"atti_roll: 0.0, atti_pitch: 0.2, atti_yaw: 0.3", "fallenDown":0, "message":"I am student FwBkqk (manually). I need help!", "date":"2020-05-11 17:04::03", "studentId":"FwBkqk"},
 {"id":10, "long":126.95234200337481, "lat":37.44874679679466, "bpm":97.0, "gravity":"grav_x: 0.00, grav_y: -0.18, grav_z: -0.98", "acceleration":"acc_x: -0.01, acc_y: -0.00, acc_z: 0.01", "rotation":"rota_x: -0.11, rota_y: 0.03, rota_z: 0.00", "attitude":"atti_roll: 0.0, atti_pitch: 0.2, atti_yaw: 0.3", "fallenDown":0, "message":"I am student C4Mwsk (manually). I need help!", "date":"2020-05-11 17:04::03", "studentId":"C4Mwsk"},
 {"id":11, "long":126.95234200337481, "lat":37.44874679679466, "bpm":91.0, "gravity":"grav_x: 0.01, grav_y: -0.15, grav_z: -0.99", "acceleration":"acc_x: 0.01, acc_y: 0.00, acc_z: 0.04", "rotation":"rota_x: -0.19, rota_y: -0.04, rota_z: 0.07", "attitude":"atti_roll: 0.0, atti_pitch: 0.2, atti_yaw: 0.3", "fallenDown":0, "message":"I am student ea5dno (manually). I need help!", "date":"2020-05-11 17:04::04", "studentId":"ea5dno"},
 {"id":12, "long":126.95234200337481, "lat":37.44874679679466, "bpm":91.0, "gravity":"grav_x: 0.01, grav_y: 0.06, grav_z: -1.00", "acceleration":"acc_x: -0.02, acc_y: 0.00, acc_z: -0.01", "rotation":"rota_x: -0.09, rota_y: -0.06, rota_z: 0.02", "attitude":"atti_roll: 0.0, atti_pitch: -0.1, atti_yaw: 0.5", "fallenDown":0, "message":"I am student UiEgaC (manually). I need help!", "date":"2020-05-11 17:04::05", "studentId":"UiEgaC"},
 {"id":13, "long":126.95234200337481, "lat":37.44874679679466, "bpm":91.0, "gravity":"grav_x: 0.00, grav_y: 0.08, grav_z: -1.00", "acceleration":"acc_x: -0.01, acc_y: 0.01, acc_z: 0.00", "rotation":"rota_x: 0.03, rota_y: 0.04, rota_z: -0.03", "attitude":"atti_roll: 0.0, atti_pitch: -0.1, atti_yaw: 0.5", "fallenDown":0, "message":"I am student 5AfshE (manually). I need help!", "date":"2020-05-11 17:04::06", "studentId":"5AfshE"},
 {"id":14, "long":126.95234200337481, "lat":37.44874679679466, "bpm":91.0, "gravity":"grav_x: 0.03, grav_y: 0.12, grav_z: -0.99", "acceleration":"acc_x: 0.01, acc_y: 0.01, acc_z: -0.01", "rotation":"rota_x: -0.06, rota_y: -0.02, rota_z: 0.02", "attitude":"atti_roll: 0.0, atti_pitch: -0.1, atti_yaw: 0.5", "fallenDown":0, "message":"I am student lsagqg (manually). I need help!", "date":"2020-05-11 17:04::06", "studentId":"lsagqg"},
 {"id":15, "long":126.95234200337481, "lat":37.44874679679466, "bpm":91.0, "gravity":"grav_x: 0.04, grav_y: 0.11, grav_z: -0.99", "acceleration":"acc_x: -0.00, acc_y: -0.01, acc_z: -0.02", "rotation":"rota_x: -0.05, rota_y: 0.05, rota_z: -0.00", "attitude":"atti_roll: 0.0, atti_pitch: -0.1, atti_yaw: 0.5", "fallenDown":0, "message":"I am student cR4zL9 (manually). I need help!", "date":"2020-05-11 17:04::07", "studentId":"cR4zL9"},
 {"id":16, "long":126.95234200337481, "lat":37.44874679679466, "bpm":91.0, "gravity":"grav_x: 0.06, grav_y: 0.10, grav_z: -0.99", "acceleration":"acc_x: -0.01, acc_y: 0.01, acc_z: -0.02", "rotation":"rota_x: 0.06, rota_y: 0.07, rota_z: -0.08", "attitude":"atti_roll: 0.1, atti_pitch: -0.1, atti_yaw: 0.5", "fallenDown":0, "message":"I am student 35BQWQ (manually). I need help!", "date":"2020-05-11 17:04::11", "studentId":"35BQWQ"},
 {"id":17, "long":126.95234200337481, "lat":37.44874679679466, "bpm":91.0, "gravity":"grav_x: 0.06, grav_y: 0.13, grav_z: -0.99", "acceleration":"acc_x: -0.02, acc_y: -0.00, acc_z: -0.01", "rotation":"rota_x: -0.07, rota_y: 0.06, rota_z: -0.01", "attitude":"atti_roll: 0.1, atti_pitch: -0.1, atti_yaw: 0.5", "fallenDown":0, "message":"I am student naMFsg (manually). I need help!", "date":"2020-05-11 17:04::12", "studentId":"naMFsg"},
 {"id":18, "long":126.95234200337481, "lat":37.44874679679466, "bpm":91.0, "gravity":"grav_x: 0.05, grav_y: 0.16, grav_z: -0.99", "acceleration":"acc_x: 0.00, acc_y: -0.00, acc_z: -0.02", "rotation":"rota_x: -0.05, rota_y: -0.08, rota_z: 0.05", "attitude":"atti_roll: 0.1, atti_pitch: -0.2, atti_yaw: 0.5", "fallenDown":0, "message":"I am student IvMe8Y (manually). I need help!", "date":"2020-05-11 17:04::12", "studentId":"IvMe8Y"},
 {"id":19, "long":126.95234200337481, "lat":37.44874679679466, "bpm":91.0, "gravity":"grav_x: 0.05, grav_y: 0.16, grav_z: -0.99", "acceleration":"acc_x: 0.00, acc_y: -0.00, acc_z: -0.02", "rotation":"rota_x: -0.05, rota_y: -0.08, rota_z: 0.05", "attitude":"atti_roll: 0.1, atti_pitch: -0.2, atti_yaw: 0.5", "fallenDown":0, "message":"I am student Z3XjH9 (manually). I need help!", "date":"2020-05-11 17:04::13", "studentId":"Z3XjH9"},
 {"id":20, "long":126.95234200337481, "lat":37.44874679679466, "bpm":91.0, "gravity":"grav_x: 0.05, grav_y: 0.16, grav_z: -0.99", "acceleration":"acc_x: 0.00, acc_y: 0.00, acc_z: -0.01", "rotation":"rota_x: -0.01, rota_y: 0.00, rota_z: -0.03", "attitude":"atti_roll: 0.1, atti_pitch: -0.2, atti_yaw: 0.5", "fallenDown":0, "message":"I am student yGXmQQ (manually). I need help!", "date":"2020-05-11 17:04::13", "studentId":"yGXmQQ"},
 {"id":21, "long":126.95234200337481, "lat":37.44874679679466, "bpm":76.0, "gravity":"grav_x: -0.00, grav_y: -0.46, grav_z: -0.89", "acceleration":"acc_x: -0.01, acc_y: 0.02, acc_z: -0.01", "rotation":"rota_x: 0.10, rota_y: -0.02, rota_z: -0.02", "attitude":"atti_roll: -0.0, atti_pitch: 0.5, atti_yaw: -0.0", "fallenDown":0, "message":"I am student JITcws (manually). I need help!", "date":"2020-05-11 17:04::20", "studentId":"JITcws"},
 {"id":22, "long":126.95234200337481, "lat":37.44874679679466, "bpm":76.0, "gravity":"grav_x: -0.01, grav_y: -0.47, grav_z: -0.89", "acceleration":"acc_x: -0.01, acc_y: 0.00, acc_z: 0.01", "rotation":"rota_x: 0.03, rota_y: -0.01, rota_z: -0.01", "attitude":"atti_roll: -0.0, atti_pitch: 0.5, atti_yaw: -0.1", "fallenDown":0, "message":"I am student sU6MIX (manually). I need help!", "date":"2020-05-11 17:04::21", "studentId":"sU6MIX"},
 {"id":23, "long":126.95234200337481, "lat":37.44874679679466, "bpm":76.0, "gravity":"grav_x: -0.02, grav_y: -0.44, grav_z: -0.90", "acceleration":"acc_x: -0.01, acc_y: 0.00, acc_z: 0.01", "rotation":"rota_x: -0.06, rota_y: -0.04, rota_z: 0.01", "attitude":"atti_roll: -0.0, atti_pitch: 0.5, atti_yaw: -0.0", "fallenDown":0, "message":"I am student 3tIowH (manually). I need help!", "date":"2020-05-11 17:04::21", "studentId":"3tIowH"},
 {"id":24, "long":126.95234200337481, "lat":37.44874679679466, "bpm":76.0, "gravity":"grav_x: -0.03, grav_y: -0.44, grav_z: -0.90", "acceleration":"acc_x: -0.00, acc_y: 0.00, acc_z: -0.00", "rotation":"rota_x: 0.01, rota_y: -0.02, rota_z: -0.02", "attitude":"atti_roll: -0.0, atti_pitch: 0.5, atti_yaw: -0.1", "fallenDown":0, "message":"I am student Ejgrkv (manually). I need help!", "date":"2020-05-11 17:04::21", "studentId":"Ejgrkv"},
 {"id":25, "long":126.95234200337481, "lat":37.44874679679466, "bpm":76.0, "gravity":"grav_x: -0.03, grav_y: -0.42, grav_z: -0.91", "acceleration":"acc_x: 0.03, acc_y: -0.01, acc_z: 0.00", "rotation":"rota_x: -0.17, rota_y: -0.10, rota_z: -0.04", "attitude":"atti_roll: -0.0, atti_pitch: 0.4, atti_yaw: -0.1", "fallenDown":0, "message":"I am student 1cxvvg (manually). I need help!", "date":"2020-05-11 17:04::22", "studentId":"1cxvvg"},
 {"id":26, "long":126.95234200337481, "lat":37.44874679679466, "bpm":76.0, "gravity":"grav_x: -0.03, grav_y: -0.42, grav_z: -0.91", "acceleration":"acc_x: 0.03, acc_y: -0.01, acc_z: 0.00", "rotation":"rota_x: -0.17, rota_y: -0.10, rota_z: -0.04", "attitude":"atti_roll: -0.0, atti_pitch: 0.4, atti_yaw: -0.1", "fallenDown":0, "message":"I am student khBDKZ (manually). I need help!", "date":"2020-05-11 17:04::22", "studentId":"khBDKZ"},
 {"id":27, "long":126.95234200337481, "lat":37.44874679679466, "bpm":76.0, "gravity":"grav_x: -0.03, grav_y: -0.42, grav_z: -0.91", "acceleration":"acc_x: 0.03, acc_y: -0.01, acc_z: 0.00", "rotation":"rota_x: -0.17, rota_y: -0.10, rota_z: -0.04", "attitude":"atti_roll: -0.0, atti_pitch: 0.4, atti_yaw: -0.1", "fallenDown":0, "message":"I am student HyB7uH (manually). I need help!", "date":"2020-05-11 17:04::23", "studentId":"HyB7uH"},
 {"id":28, "long":126.95234200337481, "lat":37.44874679679466, "bpm":76.0, "gravity":"grav_x: -0.03, grav_y: -0.41, grav_z: -0.91", "acceleration":"acc_x: 0.00, acc_y: -0.00, acc_z: -0.01", "rotation":"rota_x: 0.03, rota_y: -0.02, rota_z: -0.01", "attitude":"atti_roll: -0.0, atti_pitch: 0.4, atti_yaw: -0.1", "fallenDown":0, "message":"I am student B2yPTs (manually). I need help!", "date":"2020-05-11 17:04::23", "studentId":"B2yPTs"},
 {"id":29, "long":126.95234200337481, "lat":37.44874679679466, "bpm":75.0, "gravity":"grav_x: -0.05, grav_y: -0.40, grav_z: -0.92", "acceleration":"acc_x: 0.07, acc_y: -0.01, acc_z: 0.03", "rotation":"rota_x: 0.15, rota_y: -0.09, rota_z: -0.03", "attitude":"atti_roll: -0.0, atti_pitch: 0.4, atti_yaw: -0.4", "fallenDown":0, "message":"I am student gBOTRi (manually). I need help!", "date":"2020-05-11 17:04::38", "studentId":"gBOTRi"},
 {"id":30, "long":126.95234200337481, "lat":37.44874679679466, "bpm":75.0, "gravity":"grav_x: -0.05, grav_y: -0.40, grav_z: -0.92", "acceleration":"acc_x: 0.07, acc_y: -0.01, acc_z: 0.03", "rotation":"rota_x: 0.15, rota_y: -0.09, rota_z: -0.03", "attitude":"atti_roll: -0.0, atti_pitch: 0.4, atti_yaw: -0.4", "fallenDown":0, "message":"I am student opWAOC (manually). I need help!", "date":"2020-05-11 17:04::38", "studentId":"opWAOC"},
 {"id":31, "long":126.95234200337481, "lat":37.44874679679466, "bpm":75.0, "gravity":"grav_x: -0.09, grav_y: -0.38, grav_z: -0.92", "acceleration":"acc_x: -0.08, acc_y: -0.02, acc_z: 0.02", "rotation":"rota_x: -0.14, rota_y: 0.13, rota_z: 0.02", "attitude":"atti_roll: -0.1, atti_pitch: 0.4, atti_yaw: -0.3", "fallenDown":0, "message":"I am student JUzS4f (manually). I need help!", "date":"2020-05-11 17:04::38", "studentId":"JUzS4f"},
 {"id":32, "long":126.95234200337481, "lat":37.44874679679466, "bpm":75.0, "gravity":"grav_x: -0.09, grav_y: -0.38, grav_z: -0.92", "acceleration":"acc_x: -0.08, acc_y: -0.02, acc_z: 0.02", "rotation":"rota_x: -0.14, rota_y: 0.13, rota_z: 0.02", "attitude":"atti_roll: -0.1, atti_pitch: 0.4, atti_yaw: -0.3", "fallenDown":0, "message":"I am student PUxZP8 (manually). I need help!", "date":"2020-05-11 17:04::38", "studentId":"PUxZP8"},
 {"id":33, "long":126.95234200337481, "lat":37.44874679679466, "bpm":75.0, "gravity":"grav_x: -0.09, grav_y: -0.38, grav_z: -0.92", "acceleration":"acc_x: -0.08, acc_y: -0.02, acc_z: 0.02", "rotation":"rota_x: -0.14, rota_y: 0.13, rota_z: 0.02", "attitude":"atti_roll: -0.1, atti_pitch: 0.4, atti_yaw: -0.3", "fallenDown":0, "message":"I am student CFrOzM (manually). I need help!", "date":"2020-05-11 17:04::39", "studentId":"CFrOzM"},
 {"id":34, "long":126.95234200337481, "lat":37.44874679679466, "bpm":92.0, "gravity":"grav_x: -0.07, grav_y: -0.36, grav_z: -0.93", "acceleration":"acc_x: 0.01, acc_y: -0.00, acc_z: -0.01", "rotation":"rota_x: -0.05, rota_y: 0.08, rota_z: -0.00", "attitude":"atti_roll: -0.1, atti_pitch: 0.4, atti_yaw: -0.5", "fallenDown":0, "message":"I am student EIpQfx (manually). I need help!", "date":"2020-05-11 17:05::05", "studentId":"EIpQfx"},
 {"id":35, "long":126.95234200337481, "lat":37.44874679679466, "bpm":92.0, "gravity":"grav_x: -0.06, grav_y: -0.34, grav_z: -0.94", "acceleration":"acc_x: 0.01, acc_y: 0.01, acc_z: -0.00", "rotation":"rota_x: 0.05, rota_y: 0.01, rota_z: -0.02", "attitude":"atti_roll: -0.1, atti_pitch: 0.3, atti_yaw: -0.5", "fallenDown":0, "message":"I am student rqXnCv (manually). I need help!", "date":"2020-05-11 17:05::05", "studentId":"rqXnCv"},
 {"id":36, "long":126.95234200337481, "lat":37.44874679679466, "bpm":92.0, "gravity":"grav_x: -0.05, grav_y: -0.33, grav_z: -0.94", "acceleration":"acc_x: -0.01, acc_y: 0.01, acc_z: -0.02", "rotation":"rota_x: 0.06, rota_y: -0.03, rota_z: -0.01", "attitude":"atti_roll: -0.1, atti_pitch: 0.3, atti_yaw: -0.5", "fallenDown":0, "message":"I am student xTHEd7 (manually). I need help!", "date":"2020-05-11 17:05::06", "studentId":"xTHEd7"},
 {"id":37, "long":126.95234200337481, "lat":37.44874679679466, "bpm":92.0, "gravity":"grav_x: -0.05, grav_y: -0.33, grav_z: -0.94", "acceleration":"acc_x: 0.01, acc_y: 0.01, acc_z: -0.01", "rotation":"rota_x: -0.03, rota_y: -0.04, rota_z: 0.09", "attitude":"atti_roll: -0.1, atti_pitch: 0.3, atti_yaw: -0.5", "fallenDown":0, "message":"I am student 1vppvj (manually). I need help!", "date":"2020-05-11 17:05::06", "studentId":"1vppvj"},
 {"id":38, "long":126.95234200337481, "lat":37.44874679679466, "bpm":92.0, "gravity":"grav_x: -0.05, grav_y: -0.32, grav_z: -0.95", "acceleration":"acc_x: 0.00, acc_y: 0.01, acc_z: 0.00", "rotation":"rota_x: 0.04, rota_y: 0.02, rota_z: -0.06", "attitude":"atti_roll: -0.1, atti_pitch: 0.3, atti_yaw: -0.5", "fallenDown":0, "message":"I am student b7oJ55 (manually). I need help!", "date":"2020-05-11 17:05::07", "studentId":"b7oJ55"},
 {"id":39, "long":126.95239297607135, "lat":37.44874780596004, "bpm":82.0, "gravity":"grav_x: 0.21, grav_y: -0.40, grav_z: -0.89", "acceleration":"acc_x: -0.01, acc_y: 0.00, acc_z: -0.01", "rotation":"rota_x: 0.05, rota_y: -0.02, rota_z: 0.03", "attitude":"atti_roll: 0.2, atti_pitch: 0.4, atti_yaw: -0.5", "fallenDown":0, "message":"I am student studentxgJfS6 (manually). I need help!", "date":"2020-05-11 17:09::42", "studentId":"studentxgJfS6"},
 {"id":40, "long":126.95239297607135, "lat":37.44874780596004, "bpm":78.0, "gravity":"grav_x: 0.20, grav_y: -0.35, grav_z: -0.92", "acceleration":"acc_x: 0.10, acc_y: 0.07, acc_z: 0.07", "rotation":"rota_x: 0.19, rota_y: 0.08, rota_z: 0.04", "attitude":"atti_roll: 0.2, atti_pitch: 0.4, atti_yaw: -0.5", "fallenDown":0, "message":"I am student studentCmiVnZ (manually). I need help!", "date":"2020-05-11 17:09::43", "studentId":"studentCmiVnZ"},
 {"id":41, "long":126.95239297607135, "lat":37.44874780596004, "bpm":78.0, "gravity":"grav_x: 0.20, grav_y: -0.36, grav_z: -0.91", "acceleration":"acc_x: -0.00, acc_y: 0.00, acc_z: -0.00", "rotation":"rota_x: -0.05, rota_y: -0.04, rota_z: -0.07", "attitude":"atti_roll: 0.2, atti_pitch: 0.4, atti_yaw: -0.5", "fallenDown":0, "message":"I am student studenttn0TdI (manually). I need help!", "date":"2020-05-11 17:09::44", "studentId":"studenttn0TdI"},
 {"id":42, "long":126.95239297607135, "lat":37.44874780596004, "bpm":78.0, "gravity":"grav_x: 0.20, grav_y: -0.36, grav_z: -0.91", "acceleration":"acc_x: 0.00, acc_y: -0.00, acc_z: 0.00", "rotation":"rota_x: 0.04, rota_y: 0.00, rota_z: -0.01", "attitude":"atti_roll: 0.2, atti_pitch: 0.4, atti_yaw: -0.5", "fallenDown":0, "message":"I am student studentofz9kC (manually). I need help!", "date":"2020-05-11 17:09::45", "studentId":"studentofz9kC"},
 {"id":43, "long":126.95239297607135, "lat":37.44874780596004, "bpm":78.0, "gravity":"grav_x: 0.20, grav_y: -0.35, grav_z: -0.92", "acceleration":"acc_x: -0.01, acc_y: -0.00, acc_z: 0.00", "rotation":"rota_x: -0.15, rota_y: -0.07, rota_z: -0.04", "attitude":"atti_roll: 0.2, atti_pitch: 0.4, atti_yaw: -0.5", "fallenDown":0, "message":"I am student studentBia0Z3 (manually). I need help!", "date":"2020-05-11 17:09::45", "studentId":"studentBia0Z3"},
 {"id":44, "long":126.95239297607135, "lat":37.44874780596004, "bpm":79.0, "gravity":"grav_x: -0.04, grav_y: -0.58, grav_z: -0.81", "acceleration":"acc_x: -0.01, acc_y: 0.03, acc_z: 0.01", "rotation":"rota_x: 0.12, rota_y: 0.13, rota_z: 0.08", "attitude":"atti_roll: -0.0, atti_pitch: 0.6, atti_yaw: 0.1", "fallenDown":0, "message":"I am student student2nwrho (manually). I need help!", "date":"2020-05-11 17:10::10", "studentId":"student2nwrho"},
 {"id":45, "long":126.95239297607135, "lat":37.44874780596004, "bpm":79.0, "gravity":"grav_x: -0.03, grav_y: -0.55, grav_z: -0.83", "acceleration":"acc_x: 0.02, acc_y: 0.01, acc_z: -0.01", "rotation":"rota_x: -0.05, rota_y: -0.08, rota_z: -0.07", "attitude":"atti_roll: -0.0, atti_pitch: 0.6, atti_yaw: 0.1", "fallenDown":0, "message":"I am student studentfwyfT0 (manually). I need help!", "date":"2020-05-11 17:10::10", "studentId":"studentfwyfT0"},
 {"id":46, "long":126.95239297607135, "lat":37.44874780596004, "bpm":79.0, "gravity":"grav_x: -0.02, grav_y: -0.54, grav_z: -0.84", "acceleration":"acc_x: 0.02, acc_y: -0.03, acc_z: -0.03", "rotation":"rota_x: -0.05, rota_y: -0.03, rota_z: -0.05", "attitude":"atti_roll: -0.0, atti_pitch: 0.6, atti_yaw: 0.1", "fallenDown":0, "message":"I am student studentRMOud0 (manually). I need help!", "date":"2020-05-11 17:10::11", "studentId":"studentRMOud0"},
 {"id":47, "long":126.95239297607135, "lat":37.44874780596004, "bpm":79.0, "gravity":"grav_x: -0.01, grav_y: -0.54, grav_z: -0.84", "acceleration":"acc_x: 0.02, acc_y: -0.01, acc_z: -0.00", "rotation":"rota_x: -0.04, rota_y: -0.07, rota_z: -0.04", "attitude":"atti_roll: -0.0, atti_pitch: 0.6, atti_yaw: 0.0", "fallenDown":0, "message":"I am student studentczEaQB (manually). I need help!", "date":"2020-05-11 17:10::11", "studentId":"studentczEaQB"},
 {"id":48, "long":126.95239297607135, "lat":37.44874780596004, "bpm":79.0, "gravity":"grav_x: 0.17, grav_y: -0.71, grav_z: -0.68", "acceleration":"acc_x: 0.02, acc_y: 0.03, acc_z: 0.02", "rotation":"rota_x: -0.44, rota_y: -0.12, rota_z: -0.14", "attitude":"atti_roll: 0.2, atti_pitch: 0.8, atti_yaw: -0.7", "fallenDown":0, "message":"I am student studentT4f1nG (manually). I need help!", "date":"2020-05-11 17:10::21", "studentId":"studentT4f1nG"},
 {"id":49, "long":126.95239297607135, "lat":37.44874780596004, "bpm":79.0, "gravity":"grav_x: 0.17, grav_y: -0.68, grav_z: -0.71", "acceleration":"acc_x: 0.00, acc_y: 0.01, acc_z: 0.01", "rotation":"rota_x: 0.05, rota_y: 0.00, rota_z: -0.06", "attitude":"atti_roll: 0.2, atti_pitch: 0.7, atti_yaw: -0.7", "fallenDown":0, "message":"I am student studentlNZmAS (manually). I need help!", "date":"2020-05-11 17:10::21", "studentId":"studentlNZmAS"}]